,id,name,category,phone,address,latitude,longitude,services,priceRange_m,review_m,michelinType
0,1213126,면서울,국수,0507-1449-8878,"강남구 선릉로 805, Seoul, 06019, 대한민국",37.52416,127.03906,"['발렛파킹', '에어컨']",₩,"김도윤 셰프가 윤서울에 이어 두 번째로 문을 연 공간이다. 윤서울에서 선보였던 자가 제면 요리를 따로 판매해 달라는 요청에 따라 오픈한 곳이다. 화학 첨가물 없이 통밀과 녹두, 백태만으로 면을 뽑는데 최적의 조합을 위해 국내산과 프랑스산, 터키산 통밀을 섞어 사용한다. 신선하고 고소한 면의 맛을 오롯이 느낄 수 있는 들기름면 외에 알싸한 양념의 비빔면, 고사리와 들깨로 맛을 낸 고사리면도 일품이다. 반주로 판매하는 전통주도 한 잔 곁들이기를 추천한다.",plate
1,1213070,니시무라멘,라멘,010-9596-1122,"서울 마포구 동교로 265, 4층, Seoul, 03983, 대한민국",37.56337,126.92526,"['에어컨', '카운터 테이블']",₩,"후쿠오카의 흥미로운 프렌치 레스토랑을 운영하는 니시무라 타카히토 셰프의 라멘 식당이 서울에 문을 열었다. 니시무라멘 서울은 니시무라 타카히토 셰프의 남다른 라멘 사랑의 결과물이다. 토핑과 소스, 오일 등을 곁들여 완성한 풍성하고 입체적인 라멘 맛에서 셰프의 독특한 스타일을 엿볼 수 있다. 라멘 고유의 스타일을 유지하면서도 김 오일과 청양고추, 백김치 스타일의 쯔께모노를 활용하는 등 현지화에도 신경을 많이 썼다. 갓 지은 솥밥에 치즈와 라멘 국물을 함께 즐길 수 있는 밥 요리도 니시무라멘의 개성이 느껴지는 메뉴이다.",plate
2,1212873,가겐,일식,02-542-0176,"강남구 압구정로 80길 19-1, 2층, Seoul, 06015, 대한민국",37.52451,127.04523,"['발렛파킹', '에어컨', '카운터 테이블']",₩₩₩₩,"'가겐'이라는 상호는 최현아, 원진희 부부의 이름에서 각각 '아(雅)'와 '원(元)'을 조합해 일본어로 표기한 것이다. 원진희 셰프는 '쿠로기'에서, 최현아 셰프는 '칸다'에서 경력을 쌓았다. 가겐의 요리는 일식 특유의 계절감을 뚜렷이 느낄 수 있다는 점이 특징이다. 쿠로기에서 전수한 소면, 볶은 깨를 바로 빻아 향이 풍부한 깨 무침, 고사리 전분으로 만든 와라비 모치처럼 흔치 않은 요리들이 오감을 즐겁게 한다. 셰프의 자세한 설명이 음식에 대한 이해를 돕고 따뜻한 접객 서비스는 식사의 즐거움을 더한다.",plate
3,1213280,리알토,이탤리언,02-544-4761,"강남구 삼성로149길 13, 2층, Seoul, 06063, 대한민국",37.52318,127.04655,"['발렛파킹', '에어컨', '카운터 테이블']",₩₩,안티파스티를 단출하게 제공하고 프리미에 집중하는 메뉴 구성은 최근 몇 년 새 서울의 이탈리안 다이닝을 특징짓는 트렌드이다. 이곳 역시 메뉴 구성은 간소하지만 '리알토(Rialto)'라는 상호에 담고자 한 셰프의 요리 철학에 그만의 감각과 스타일이 합쳐져 이곳만의 독특한 요리를 경험할 수 있다. 특히 버터와 치즈의 절묘한 조화가 깊은 맛을 자아내는 따야린과 카치오 에 페페가 일품이다. 다양하게 준비된 다른 파스타 메뉴들도 소스의 밸런스가 훌륭하다. 알타리무 피클 역시 추억의 맛을 소환하는 리알토만의 비장의 무기이다.,plate
4,1213274,주052,한식,02-2281-0343,"성동구 고산자로 14길 26, Seoul, 04750, 대한민국",37.56344,127.03766,"['에어컨', '좋은 사케 리스트', '카운터 테이블']",₩₩,'주052'라는 상호는 술 '주(酒)'에 셰프들의 출신지 지역번호 '052'를 조합해 만들었다. 한식 요리 주점 주052는 범상치 않은 상호만큼이나 재미 있는 아이디어가 돋보이는 요리를 선보인다. 두 명의 셰프는 한식의 밑바탕을 이루는 '장'과 '발효 기법'을 활용하여 개성 넘치는 한식 요리를 제공한다. 이름만 들으면 익숙한 요리들이지만 직접 맛을 보면 메뉴 하나하나에서 남다른 정성과 맛이 느껴진다. 또한 요리들 간에 맛의 궁합도 좋아 여러 메뉴를 함께 즐기기에도 안성맞춤이다. 한식과 한국 술의 절묘한 조화를 경험하기에 더없이 좋은 곳이다.,plate
5,1213112,에스콘디도,멕시칸,02-2038-8994,"용산구 한남대로 20길 61-7, 지하 1층, Seoul, 04419, 대한민국",37.53517,127.01046,"['발렛파킹', '에어컨', '카운터 테이블']",₩₩₩,진우범 셰프의 에스콘디도는 멕시칸 퀴진에 대한 셰프의 열정을 제대로 느낄 수 있는 곳이다. 진 셰프는 멕시칸 요리에 매료되어 멕시코로 건너갔고 요리와 문화를 배우며 차곡차곡 실력을 쌓았다. 그는 에스콘디도에서 정통 멕시칸 요리를 바탕으로 자신만의 스타일을 추구한다. 또한 어떤 요리이든 기본이 되는 토르티야와 몰레의 특성을 잘 살림으로써 미묘한 맛의 차이를 느끼게 한다. 에스콘디도의 요리와 함께 테킬라와 메즈칼 페어링이나 칵테일 페어링을 곁들이면 더욱 깊이 있는 맛을 느낄 수 있으니 꼭 경험해 보시기를 추천한다.,plate
6,1212812,산로,일식,050-6465-6292,"강남구 도산대로 518, 2층, Seoul, 06070, 대한민국",37.52417,127.04978,"['발렛파킹', '에어컨', '좋은 사케 리스트', '카운터 테이블']",₩₩₩₩,유성엽 셰프는 일식 요리사로서 체득한 조리 기술과 전통 일본 요리의 가치를 산로에서 구현하고 있다. 입구에 걸린 '산로(三露)'라고 적힌 족자는 손님맞이가 끝나면 입구에 물을 세 번 뿌리는 일본의 문화를 표현한 것이다. 공간 이곳저곳을 채우고 있는 섬세하고 세련된 작품들은 유성엽 셰프가 이 공간과 자신의 요리를 통해 전하고자 하는 분위기와 감성이 무엇인지를 잘 보여준다. 요리를 대하는 셰프의 마음과 세심한 조리 기술은 계절의 향을 담은 식재료와 만나 요리를 통해 맛으로 구체화된다. 산로는 무엇보다 식사하는 내내 이어지는 섬세한 풍미의 흐름이 압권이다. 단정함과 정갈함에 매력적인 풍미까지 갖춘 셰프의 와쇼쿠 요리만큼이나 접객 서비스 역시 흠잡을 데 없이 뛰어나다.,plate
7,1213578,미필담,만두,010-5455-5041,"마포구 성지 3길 22, Seoul, 04083, 대한민국",37.54658,126.91419,"['에어컨', '카운터 테이블']",₩,한적하지만 동시에 젊음의 생기가 느껴지는 합정동의 어느 골목에 자그마한 이북식 손만둣국집 미필담이 있다. 이곳의 주인인 젊은 부부는 황해도 출신 외할머니의 조리법을 바탕으로 이북식 만둣국의 담백한 맛을 손님상에 올린다. 두툼하고 속이 꽉 찬 손만두에 별다른 가미 없이도 담백한 육향을 자랑하는 국물의 조합은 거부하기 쉽지 않은 맛이다. 담백하고 슴슴한 만둣국 외에 계절에 맞춰 정성껏 선보이는 한식 메뉴에서 주인 부부의 노력이 느껴진다. 좌석 구조상 혼자 식사하기에도 적합하고 친구나 연인과 함께 찾기에도 부족함이 없는 공간이다.,plate
8,1194788,아웃트로 바이 비토,유러피언,051-758-7123,"수영구 민락본동로 19번길 18, Busan, 48087, 대한민국",35.15835,129.12786,['에어컨'],₩₩,해리단길에서 광안리로 이전 오픈한 아웃트로 바이 비토. 달라진 이름처럼 외관과 실내를 현대적이고 세련되게 단장하고 내추럴 와인과 음식을 제공한다. 하지만 그 본질인 파스타 요리는 달라지지 않고 더욱 맛있어졌다. 자가 제면 파스타는 밀가루의 함량을 높여 숙성 후에 뽑아 내는데 차진 식감은 물론 소스와도 잘 어우러져 맛을 배가시킨다. 여러 종류의 파스타 외에도 샐러드나 고기 요리 등 메뉴가 다양하게 준비가 되어 있다. 셰프가 음식에 맞춰 추천하는 내추럴 와인과 함께 세련된 분위기에서 즐겨 보시기를.,plate
9,1194784,오스테리아 어부,이탤리언,051-802-8858,"부산진구 동천로 58, Busan, 47297, 대한민국",35.15394,129.06253,['에어컨'],₩₩,전포동에 위치한 오스테리아 어부. 특이하게 음주 양식당이라는 상호를 내걸고 있는 이곳은 해산물이 풍부한 이탈리아 남부 정통 요리를 추구하는 곳으로 2017년부터 이 자리를 지켜 왔다. 알 덴테로 익힌 파스타에 짭짤하다고 느낄 정도의 간으로 신선한 딱새우를 풍부하게 넣은 비스크 파스타나 새로 추가된 마레(바다) 코스를 맛보는 것도 좋은 선택이 될 것이다. 셰프가 직접 추천하는 와인과 함께 곁들여 보시길. 진한 이탈리아의 맛을 느낄 수 있다.,plate
10,1194553,팔레트,컨템퍼러리,051-626-2364,"남구 분포로 66-30 3층, Busan, 48576, 대한민국",35.13162,129.11976,"['에어컨', '주차장']",₩₩,"프렌치 퀴진을 기반으로 자유롭게 구성에 변화를 준 현대적 요리를 선보이는 팔레트. 팔레트의 감각적인 요리 결과물은 김재훈 셰프가 경험한 요리 문화의 다양성이 바탕이 되었다. 고향 부산에서 당차게 팔레트를 오픈한 이후 요리적으로 다양한 도전과 레스토랑의 컨셉 변화를 시도한 결과, 그가 그린 팔레트의 발전적인 모습이 현재의 요리에 담겨져 있다. 다이닝만큼은 옛것을 고수하려는 부산의 다이닝 씬에서 변화무쌍한 시도를 하는 그의 요리가 어떠한 형태로 발전하게 될지 기대가 된다. 창문 너머로 보이는 용호만 부두와 도심이 포함된 광안대교의 경관은 요리와 함께 즐길 수 있는 팔레트만의 매력적인 요소이다.",1 star
11,1194544,으뜸 이로리바타,일식,010-6640-2884,"수영구 수영로 408번길 20, Busan, 48308, 대한민국",35.1373479,129.0292733,"['에어컨', '좋은 사케 리스트', '카운터 테이블']",₩₩,"‘이로리’, 즉 화로를 활용하여 오마카세를 제공하는 남천역 인근의 레스토랑이다. 비록 일본의 전통 이로리는 아니지만 요리에서 쓰이는 역할을 잘 표현했다. 꼬치에 끼워져 이로리에 가지런히 놓인 제철 생선의 시각적 효과와 풍미는 요리를 즐기는 또 다른 재미이다. 이 레스토랑은 일식 요리사 정으뜸 셰프의 경험과 개인적 기호가 어우러진 공간으로, 다양한 생선구이 요리를 즐기기에 제격이다. 솥밥을 비롯해 오마카세에 포함된 각종 요리들도 하나같이 일식의 정갈한 맛을 오롯이 전해 준다.",plate
12,1194535,토라후구가,복어,051-743-5432,"해운대구 좌동순환로 480, Busan, 48103, 대한민국",35.16417,129.1699,"['에어컨', '주차장']",₩₩,"해운대 중동사거리 대로변에 토라후구(참복)가 헤엄치는 작은 수족관과 옛스러운 나무 디자인의 외관이 유독 눈에 띄는 이곳. 주인장 정승훈 셰프가 직접 붓글씨로 쓴 작은 상호명 외에 따로 간판은 없지만 이러한 시각적 요소만으로도 복어 요리 전문점임을 알 수 있다. 셰프의 정교한 손놀림을 통해 참복이 가진 다채로운 맛의 매력이 고객의 테이블 위로 쉼 없이 전해지고, 유비키와 텟사, 가라아게, 지리, 죠스이 등 기본에 충실한 각종 일본식 복어 요리가 알차게 코스를 구성한다. 복어를 취급하는 곳은 많아도 일본 스타일의 요리를 구현하고자 하는 곳은 많지 않다. 그런 점에서 복어를 다루고 요리해 손님 상에 올리는 셰프의 진지함에서 요리에 대한 그의 진심이 느껴진다.",plate
13,1207862,에쌍스,프렌치,010-8010-5099,"서울시 서초구 반포대로 4길 12, Seoul, 06719, 대한민국",37.48179,127.01336,"['발렛파킹', '에어컨']",₩₩,"클래식한 프렌치 요리로 유명한 쏠레이의 김영선 셰프가 우여곡절 끝에 쏠레이에서의 여정을 정리하고 에쌍스에서 자신만의 프렌치 퀴진을 선보이고 있다. 에쌍스에서는 전보다 편안하고 가벼운 비스트로 스타일의 프렌치 요리를 제공함으로써 요리에 대한 접근성을 높였다. 레스토랑에도 변화의 바람이 불고 있지만 김영선 셰프는 클래식한 퀴진 스타일을 변함없이 고수하면서, 정확한 방식으로 굽고 익힌 식재료와 정성이 깃든 소스를 통해 깊이 있는 맛을 전하고 있다. 다양한 스타일의 매력적인 현대식 요리가 대세로 자리잡은 시대이지만 진정성이 느껴지는 에쌍스의 차분한 요리는 프렌치 퀴진의 기본을 다시 한번 생각하게 해준다.",plate
14,1207479,이와,일식,010-8543-3356,"부산 해운대구 해운대해변로 209번길 13, 2층, Busan, 48093, 대한민국",35.15959,129.15384,"['에어컨', '카운터 테이블']",₩₩,"생선 숙성 특허를 보유한 셰프는 분명한 의도를 가지고 숙성 식재료를 준비한다. 여기서 나오는 안정적인 맛의 다양한 구성이 즐거움을 준다. 식재료의 수급 상황과 셰프의 구상에 따라 스시와 사시미, 일식 요리의 비중을 그때그때 조절한다. 셰프는 모든 생선을 기본적으로 4일 이상 숙성하며 생선의 종류와 특성, 컨디션에 맞춰 최적의 숙성 시기를 찾기 위해 식재료에 세심한 주의를 기울인다. 합리적인 가격과 풍미 깊은 숙성 식재료의 다양한 일식을 한 자리에서 즐기는 것은 또 다른 재미를 준다.",plate
15,1208000,안암,돼지국밥,010-6874-8818,"종로구 북촌로 5길 10, Seoul, 03055, 대한민국",37.57939,126.98446,"['에어컨', '카운터 테이블']",₩,북촌에 위치한 작은 공간 안암의 주메뉴는 돼지국밥이다. '보통'과 ‘고기 많이’로 양이 구분되어 있는데 국밥의 비주얼이 무척 독특하다. 청양고추와 케일로 만든 기름이 깔끔한 육수와 어우러져 풍부한 향을 느끼게 한다. 스페인산 듀록 돼지의 등갈비에 통 목살을 얇게 저민 고기는 굉장히 부드럽고 은은한 육향을 가지고 있어 다채로운 풍미를 즐길 수 있다. 취향에 따라 고수 추가도 가능하니 안암에서 따뜻한 국밥 한 그릇 즐겨 보시기를 권한다.  ,bib
16,1207606,르오뇽,프렌치,010-9033-9187,"강남구 압구정로 4길 13-4, Seoul, 06028, 대한민국",37.52177,127.02053,"['발렛파킹', '카운터 테이블']",₩₩₩,"가로수길의 한적한 골목에 위치한 르오뇽. 프랑스어로 ‘양파’라는 뜻의 이곳은 프렌치 요리를 베이스로 페스코 베지테리언용 음식, 즉 육류를 빼고 생선과 난류, 유제품만 사용해 만든 음식을 선보인다. 환경과 동물 복지에 관심이 높은 셰프가 본인이 직접 실천 중인 식단을 손님들과 나누기 위해 오픈했다. 깊은 맛을 내는 육수는 버섯과 채수를 이용하고, 케이크는 밀가루 대신 콜리플라워와 페코리노 치즈로 식감을 내지만 깊은 맛과 감칠맛이 진하게 나와 육류나 밀가루를 대체하기에 모자람이 없다. 비건 또는 베지테리언 식단에 관심이 있다면 이곳에서 페스코 베지테리언 식단부터 가볍게 경험해 보면 어떨까?",plate
17,1207449,코르 파스타바,이탤리언,010-2366-4570,"부산진구 동성로 25번길 13, 2층, Busan, 47305, 대한민국",35.15264,129.06769,['카운터 테이블'],₩,"전포동의 힙한 골목길로 들어서 2층의 두꺼운 철문을 열고 들어서면 10석 남짓한 작은 공간이 있다. 파스타 바(Bar)라는 이름처럼 직접 제면한 파스타 메뉴를 제공하는 곳으로 파스타를 종류별로 다양하게 맛볼 수 있다. 진한 소스의 새우 비스크 소스 스파게티, 성게와 어란을 사용한 보타르가 파스타, 토마토 소스를 넣은 한우 양 벌집 트리파를 직접 구운 포카치아나 와인과 함께 즐겨보시길.",bib
18,1207158,동경밥상,장어,070-7576-1428,"수영구 남천바다로 34-6, Busan, 48304, 대한민국",35.14839,129.11386,"['에어컨', '주차장']",₩,부산의 정취가 돋보이는 광안리 해수욕장의 익숙한 거리 분위기에서 벗어나 레스토랑의 정문에 이르면 사뭇 차분하고 정적인 분위기가 감돈다. 일본의 대표적인 장어 덮밥인 우나쥬와 히츠마부시를 선보이는 동경 밥상의 모습이다. 김태우 셰프의 손을 거친 동경 밥상의 음식에서 이 요리의 정통성을 표현하고자 하는 그의 노력이 엿보인다. 두툼하게 씹히는 우나기는 본연의 풍미가 도드라지고 감칠맛 나는 소스와 잘 어우러진다. 무엇보다 최근 도정을 원칙으로 하는 윤기 나는 쌀밥과의 조화가 입맛을 당긴다. 정통성 있는 레시피를 존중하며 디테일하게 자신만의 맛을 더해가는 모습이 요리에 대한 신뢰로 이어진다.,bib
19,1207138,안목,돼지국밥,070-8778-0519,"수영구 광남로 22번길 3, Busan, 48307, 대한민국",35.14492,129.11076,"['에어컨', '카운터 테이블']",₩,"우리가 기억하는 돼지 국밥의 맛이나 멋과는 다른, 새로운 형태의 돼지 국밥을 제안한 안목. 안목은 단순히 기존의 국밥과 형태만 달리한 것이 아닌, 고개가 끄덕여지는 돼지 국밥의 맛을 선사한다. 돼지 국밥은 특유의 풍미를 가지고 있지만 그 안에서 한국의 다른 국물 음식을 떠올리게 하는 오묘한 맛이 있다. 돼지 국밥의 일번지라 할 부산에서 수많은 유명 돼지 국밥과 맛에 있어 확실한 차별화를 꾀하면서도, 요리는 다양한 방향성을 갖고 변화하고 발전한다는 느낌을 주는 레스토랑이다. 개개인의 취향 차이가 있겠지만 다대기나 새우젓을 넣지 않고 이곳만의 돼지 국밥을 있는 그대로 즐겨 보는 것도 좋을 것 같다.",bib
20,1207362,르도헤,컨템퍼러리,051-747-8522,"해운대구 마린시티3로 37, 2층, Busan, 48118, 대한민국",35.15543,129.14665,"['에어컨', '주차장']",₩₩₩,"마린시티에 위치해 아름다운 바다의 조망을 자랑하는 르 도헤. 이곳의 상호 르 도헤는 ‘금빛으로 물들인다’는 뜻의 프랑스어로 고급스럽고 아름다운 경험을 제공하겠다는 의지가 담겨 있다. 이전에는 한식당으로 운영했으나 지금은 프렌치와 일식의 터치를 가미한 컨템퍼러리를 지향한다. 다양한 종류와 리스트를 자랑하는 와인 셀러를 보유하고 있으며, 와인과의 마리아주에 집중할 수 있도록 코스 메뉴 외에 단품 메뉴 및 와인과 칵테일을 곁들일 수 있는 바 메뉴도 선보이고 있다.",plate
21,1207448,쉐프곤,컨템퍼러리,010-4585-6607,"중구 중구로 23번길 12, Busan, 48978, 대한민국",35.10168,129.03004,"['발렛파킹', '카운터 테이블']",₩₩,자갈치 시장 근처 골목에 위치한 이곳은 오랫동안 호텔에서 근무하던 셰프가 독립해 만든 공간이다. 셰프가 직접 아침마다 신선한 재료를 시장에서 구해다 계절에 맞게 그날의 메뉴를 준비한다. 그래서 코스 이름도 ‘자갈치 셰프 코스 스페셜’이다. 주방 쪽 테이블에 앉으면 재료에 대한 설명을 들으며 요리하는 모습을 직접 감상할 수 있다. 해산물뿐만 아니라 고기 요리도 다양하며 단품도 준비되어 있으니 수준급 와인과 함께 자갈치의 정수를 즐겨 보시길 바란다.,plate
22,1207450,아르프,비건,010-5588-1368,"영도구 태종로 99번길 35, Busan, 49035, 대한민국",35.09293,129.04258,['채식메뉴 제공'],₩,"100% 비건 음식만을 서빙하는 아르프. Around Plant에서 앞 글자를 따 만든 이름인데 둥그런 지구의 긍정적이고 윤리적인 식탁과 채소 요리의 무한한 가능성을 표현한 상호라고 한다. 쌀로 직접 만든 와인과 함께 고기가 들어가지 않은 음식을 만나볼 수 있는데 ‘비건 요리는 맛없다’는 편견을 단박에 깨뜨린다. 시그니처 메뉴인 고사리 파스타는 고사리와 버섯을 말려 식감을 극대화해 쫄깃하고 고소한 맛을 느낄 수 있고, 비건 치즈는 코코넛 오일로 만들었지만 체다치즈와 똑같은 맛을 낸다. 동물성 재료 없이도 빼어난 맛을 내는 음식을 아름다운 공간에서 즐겨 보시길.",bib
23,1194881,트리드,"컨템퍼러리, 아메리칸 컨템퍼러리",02-512-8312,"강남구 선릉로 162길 16, 2층, Seoul, 06014, 대한민국",37.5267383,127.0416702,"['발렛파킹', '에어컨']",₩₩₩,"다양성, 좋은 맛, 즐거움. 이 세 가지는 모던 퀴진에 있어 셰프와 고객의 공통 관심사이다. 모던 퀴진 레스토랑 ‘트리드’는 이런 관심사를 충족시키고자 하는 요리사들의 노력이 느껴지는 곳이다. 트리드의 셰프가 여러 문화권에서 경험한 다양한 다이닝 환경은, 식재료와 풍미의 조합을 통한 새로운 맛을 발견하기 위해 과감하고 흥미로운 선택을 할 수 있게 해 주었다. 공간의 안락함과 차분한 서비스, 세련된 디자인의 개방형 주방이 이곳의 근사한 요리와 어우러져 일체감을 제공한다.",plate
24,1207136,딤타오,딤섬,051-741-3638,"해운대구 우동 1로 25, Busan, 48088, 대한민국",35.16394,129.15647,[],₩,"‘마음에 점을 찍다’라는 의미의 딤섬은 중국 광둥 지역의 대표 음식이다. 배를 가득 채우기 위함이 아닌 간소하게 먹는 음식이라는 뜻이 담겨 있다. 딤섬은 종류가 무수히 많지만 딤타오에서는 그 중 가장 유명한 몇 가지를 선보인다. 육즙이 가득한 샤오롱바오, 통통한 새우살과 부추를 듬뿍 채운 교자를 비롯해 원톤수프나 바베큐번 등도 만나볼 수 있다. 예로부터 딤섬은 차와 함께 먹었다고 하니 보이차나 재스민차와 곁들여 먹어 보기를 추천한다. 해리단길에서 긴 줄을 찾다 보면 금세 발견할 수 있다.",plate
25,1194849,레스토랑 오와이,"프렌치, 컨템퍼러리",02-515-7250,"강남구 선릉로 148길 48-12, 지하 1층, Seoul, 06064, 대한민국",37.5222697,127.0432627,"['발렛파킹', '에어컨']",₩₩₩₩,한적한 주거 지역 골목 한 켠에 위치한 ‘레스토랑 오와이’는 차분한 느낌의 외관부터가 동네의 분위기와 이질감 없이 잘 어우러진다. 프렌치 퀴진에 대한 열정과 애정으로 한국과 프랑스에서 짧지 않은 시간을 요리사로 일해 온 부부가 운영하는 레스토랑이다. 화려함보다는 진중함과 안정감이 어울리는 이곳의 셰프들은 클래식과 모던의 경계를 자유롭게 넘나드는 요리로 정통을 표현해낸다. 식재료에 대한 높은 이해에서 나오는 조리의 정확성과 뚜렷하고 깊이 있는 요리의 맛을 경험해 보기 바란다. ,plate
26,570674,하쿠시,일식,02-792-0811,"용산구 독서당로 29길 6, 2층, Seoul, 04419, 대한민국",37.53667,127.01157,"['발렛파킹', '에어컨', '카운터 테이블']",₩₩₩,"숯과 불 그리고 도화지, 최성훈 셰프가 하쿠시를 통해 표현하고자 하는 세 가지 주제를 멋지게 공간에 담아 냈다. 강렬한 블랙 앤 레드 컬러의 시각적 강렬함이 입구에서부터 다이닝 공간까지 이어지는데, 공간 곳곳에 포인트로 활용된 화이트 컬러가 조화로움과 안정감을 준다. 공간이 가진 이런 시각적 강렬함처럼, 하쿠시의 요리에도 셰프의 다양한 요리 경험이 반영된 독창성이 선명하게 드러난다. 제철 식재료의 매력이 그대로 살아 있는 하쿠시의 요리에는 모던과 클래식의 경계를 넘나드는 뚜렷한 맛과 향이 담겨 있다.",plate
27,1207071,제로 베이스,일식,070-8803-0318,"수영구 민락로 33번길 17, 2층, Busan, 48285, 대한민국",35.15741,129.12097,"['에어컨', '카운터 테이블']",₩₩₩,"제로 베이스는 일식 이자카야 '유노우'로 고객들에게 좋은 반응을 얻었던 유병찬 셰프의 일식 레스토랑이다. 유노우를 운영하면서 깊이 있는 일식 요리에 대한 갈증을 느꼈던 그가 제로 베이스에서 새로운 요리를 발전시키며 또 한 번 손님들과 교감하고 있다. 탄탄한 조리 솜씨를 바탕으로 식재료를 다양하게 활용하는데, 클래식한 방식이지만 셰프의 감각이 돋보이는 시도들이 눈에 띈다. 손님을 대접하기 위해 제철 식재료를 엄선하는 데 큰 비중을 두는 것은 당연하다. 현대적 디자인의 내부 공간이 클래식한 요리 스타일과 대비를 이루며 묘한 이질감을 느끼게 한다.",plate
28,570652,라망 시크레,컨템퍼러리,02-317-4003,"중구 퇴계로 67, 레스케이프 호텔 26층, Seoul, 04529, 대한민국",37.55983,126.97949,"['발렛파킹', '에어컨', '주차장']",₩₩₩₩,"'‘비밀스러운 연인'을 뜻하는 ‘라망 시크레’. 레스케이프 호텔 26층에 자리 잡고 있는 이곳은 그 이름처럼 비밀스러운 분위기의 공간에 세련된 인테리어로 손님들을 맞는다. 미국에서 오랜 경력을 쌓고 돌아온 손종원 셰프는 '한국 스타일의 양식'을 현대적으로 풀어 낸다. 한국의 다양한 식재료를 서양 요리의 테크닉과 접목시켜 만들어 내는 음식은 신선하면서도 사뭇 익숙하게 다가온다. ‘라망 시크레’에서는, 좋은 재료와 그 재료를 공급하는 생산자의 마음이 주방을 거쳐 손님에게 전달되는 소통 과정을 중시하는 셰프의 마음을 느낄 수 있다.",1 star
29,1194779,차오란,"중식, 칸토니즈",051-922-1250,"해운대구 달맞이길 30, 시그니엘 부산 5층, Busan, 48099, 대한민국",35.16191,129.16828,"['발렛파킹', '에어컨', '주차장', '휠체어 가능']",₩₩₩₩,"시그니엘 5층에 위치한 차오란. 정통 광둥식 음식을 내는 중식당으로 정확히는 홍콩식에 가깝다. 홍콩식은 광둥식을 기반으로 하면서도 다양한 문화를 가진 지역의 특색이 만들어 낸 새로운 맛들이 조화롭게 섞인 것이 특징이다. 딤섬만 하더라도 오징어 먹물로 색을 낸 만두피에 금박을 올린 하가우, 트러플을 비롯한 각종 버섯과 아스파라거스를 넣은 야채교자, 말린 가리비와 XO 소스를 넣고 날치알을 올린 딤섬 등 화려하고 맛있는 메뉴가 다양하게 준비되어 있다. 대표 메뉴인 꿀 소스 바베큐와 바삭한 크리스피 삼겹살은 촉촉한 고기에 바삭한 껍질과 과하지 않은 양념 맛이 일품이다. 1920년대 홍콩을 재연한 듯한 실내에서 해운대를 조망하며 음식을 음미해 보기를 바란다.",plate
30,1207932,호빈,중식,02-2270-3141,"중구 동호로 287, 앰배서더 서울 풀만 2층, Seoul, 04618, 대한민국",37.5604,127.00247,"['발렛파킹', '에어컨', '주차장', '휠체어 가능']",₩₩₩₩,"호빈은 후덕죽 셰프가 운영하는 중식 레스토랑이다. 후덕죽 셰프는 자타 공인 한국 중식의 산증인이자 수십 년간 광동식 중화 요리의 고급화에 앞장서 온 인물이다. ‘귀한 손님’을 뜻하는 상호 '호빈'은 고객과 함께 요리의 길을 걸어온 셰프가, 자신의 고객 존중의 마음을 표현한 것이다. 어향통해삼, 팔진초면 등 호빈을 대표하는 요리는 여럿 있지만 국내에서 최초로 선보인 불도장이야말로 빼놓을 수 없는 메뉴다. 불도장은 지금도 그를 대표하는 요리일 정도로 상징성이 있다. “신선한 식재료를 활용하여 재료 본연의 맛을 살려 조리한다.”는 셰프의 말은 요리의 기본이 되는 명제임에도 남다른 무게가 느껴진다. 호빈에서는 다양한 요리와 더불어 제철 식재료를 활용한 보양식도 제공한다.",1 star
31,1195183,윤서울,한식,02-336-3323,"강남구 선릉로 805, Seoul, 06019, 대한민국",37.52416,127.03906,"['발렛파킹', '에어컨', '카운터 테이블']",₩₩₩,nan,1 star
32,1192592,세븐스도어,"컨템퍼러리, 한식",02-542-3010,"강남구 학동로 97길 41, 4층, Seoul, 06072, 대한민국",37.52237,127.05429,"['발렛파킹', '에어컨', '카운터 테이블', '휠체어 가능']",₩₩₩₩,"김대천 셰프의 요리는 시간이 흐를수록 더욱 다양해지고 그 깊이를 더해 간다. 7th Door의 요리에서는 셰프가 지향하는 한식의 방향성을 경험할 수 있다. 그는 한식의 특징인 발효와 숙성을 주제로 삼아 자신만의 노하우와 정성을 담아 요리에 쓰일 재료를 준비한다. 이러한 과정을 거쳐 음식이 고객의 테이블에 오르기까지 김대천 셰프의 집중력과 아이디어가 요리에 재치 있게 녹아들고, 셰프의 이런 재치와 위트가 식사와 식사 사이에 재미를 더한다. 맛의 5가지 표현과 요리의 주제인 발효와 숙성 그리고 셰프의 감각, 이 7가지 테마의 어우러짐은 미식의 즐거움을 기대하게 한다. ",1 star
33,1195189,보르고 한남,이탤리언,02-6082-2727,"용산구 이태원로 54길 31, 3층, Seoul, 04400, 대한민국",37.53687,127.00187,['에어컨'],₩₩₩,"이탈리아어로 ‘동네’를 뜻하는 ‘보르고 한남’. 스테파노 디 살보 셰프가 운영하는 이곳은, 작은 계단을 올라가면 아늑한 공간과 어울리는 홈메이드 음식과 리큐어들이 손님을 반긴다. 오랜 경력의 셰프가 직접 요리하는 이탈리안 다이닝을 맛볼 수 있는 곳으로, 아침에 직접 만든 빵과 파스타부터 디저트까지 그의 손을 거치지 않는 음식이 없다. 시그니처 메뉴인 칼다로 수프는 토스카나 지방에서 어부들이 먹는 수프에서 영감을 받아 만든 것으로 매콤하고 풍부한 맛이 일품이다. 각 “동네”의 다양한 이탈리안 음식을 만나볼 수 있다. 디저트 트레이에 놓인 각종 디저트도 꼭 맛보시길.",plate
34,1194866,에그 앤 플라워,이탤리언,02-3789-7681,"용산구 신흥로 26길 35, 3층, Seoul, 04337, 대한민국",37.545342,126.984447,"['발렛파킹', '에어컨', '전망이 좋은', '테라스']",₩₩,‘에그 앤 플라워’는 그 이름처럼 계란과 밀가루만을 이용해 직접 만드는 생면 파스타 전문점이다. 입구에 들어서면 밀가루 포대와 제면기가 제일 먼저 눈에 들어온다. 해방촌의 복잡한 골목 안에 위치해 있지만 내부의 테라스와 탁 트인 통창으로 보이는 이태원의 뷰가 아름다운 곳. 당일 만드는 생면과 함께 고추장과 액젖 등을 사용해 만든 흑돼지 라구를 비롯해 부라타 치즈와 구운 감태 등 한국적 색채를 가미한 이탈리안 파스타를 경험할 수 있다.,bib
35,1195424,하네,스시,010-9773-0887,"강남구 언주로 172길 14, Seoul, 06017, 대한민국",37.5275808,127.0348773,"['발렛파킹', '에어컨', '카운터 테이블']",₩₩₩₩,"계절의 순리를 따르는 우수한 자연산 식재료를 맛본다는 건 미식의 큰 즐거움 중 하나이다. 자연산 식재료 사용을 고집하는 최주용 셰프의 스타일이 잘 구현된 ‘스시 하네’가 그런 즐거움을 만끽할 수 있는 레스토랑이다. 스시 하네에서는 재료의 선별부터 고객에게 스시 한 점을 건네는 일까지, 일련의 과정에서 셰프의 의도가 느껴지지만 요리 자체만으로도 특유의 매력을 즐기기에 충분하다. 전통적 소재들을 현대적으로 표현한 세련되고 고급스러운 다이닝 공간에서 즐기는 스시는 무척 즐거운 다이닝 경험이다.",1 star
36,1206479,일 베키오,이탤리언,02-302-0944,"마포구 월드컵북로 332-12, Seoul, 03930, 대한민국",37.5763,126.89462,"['발렛파킹', '에어컨']",₩₩,"일 베키오는 김민균, 김빈나 부부 셰프가 운영하는 소박하고 따뜻한 분위기의 리스토란테로, 뚜렷하면서도 집중된 풍미의 이탈리안 요리를 맛볼 수 있는 곳이다. 또, 한국의 제철 채소와 해산물을 적극 활용한 요리에서 계절의 맛을 물씬 느낄 수 있다. 특히 셰프는 빈틈없이 정확한 쿠킹을 바탕으로 식재료의 익힘 정도를 조절하여 수분 변화에 따른 맛과 향, 질감을 요리에 반영한다. 이러한 특징이 잘 드러나는 요리가 바로 반건조 생면 파스타이다. 셰프는 고객들이 다양한 맛의 변화를 음미할 수 있도록 요리의 변화를 모색하면서도 기복 없이 일관된 풍미를 선사하기 위해 노력한다. 레스토랑이 좁은 골목에 위치해 있어 주차가 쉽지 않으니 참고하기 바란다.",plate
37,1207561,빈호,컨템퍼러리,010-9677-2302,"강남구 학동로 43길 38, 논현웰스톤 162호, Seoul, 06059, 대한민국",37.51866,127.03814,"['아주 좋은 와인 리스트', '주차장', '카운터 테이블']",₩₩₩,"전성빈 셰프와 김진호 소믈리에가 의기투합해 만든 빈호는 탁 트인 통창과 오픈된 주방에 길쭉한 테이블이 마치 여럿이 함께 식사하며 와인을 즐기는 듯한 느낌을 준다. 방대한 와인 리스트는 기본이고, 세심한 서비스와 음식의 페어링, 제철 재료와 절묘하게 어울리는 진한 소스 등을 통해 현대적인 요리의 진수를 맛볼 수 있다. 특히 방어 타르타르는 사워도우 크럼블과 수란으로 버무린 후 살짝 구운 로메인으로 둘러 가츠오 크림과 파슬리 오일, 레몬즙을 넣은 소스와 함께 나오는데 고소한 풍미와 산뜻한 방어의 맛이 잘 어울린다. 와인과 함께 한다면 음식의 매력이 배가 된다는 것을 잘 보여주는 곳이다.",1 star
38,1195751,코자차,아시안,010-9023-7771,"강남구 학동로 97길 17, Seoul, 06072, 대한민국",37.52083,127.05519,"['발렛파킹', '에어컨', '주차장']",₩₩₩₩,"한국인 셰프가 (KO) 만드는 일식과(JA) 중식의(CHA) 만남이라는 의미의 코자차. 신라호텔 출신의 최유강, 조영두 셰프가 의기투합하여 색다른 장르의 음식을 선보인다. 1950-1960년대 빈티지 조명과 가구로 꾸민, 독특한 분위기의 장소에서부터 중식과 일식이 번갈아 나오는 코스 요리까지, 코자차에서는 고정관념을 깨는 경험이 가능하다. 황후가 쓰던 비눗갑에 담아낸 전복 냉채와 진한 상탕 육수로 끓인 샥스핀 찜이 이곳의 시그니처 메뉴다. 셰프들이 음식 이야기와 함께 직접 테이블 앞에서 서빙하는 퍼포먼스도 볼 만하다. 코자차는 모두 단독실로만 이뤄져 있다.",1 star
39,1207130,금수복국,복어,051-742-3600,"해운대구 중동 1로 43번길 23, Busan, 48095, 대한민국",35.16242,129.1645,"['발렛파킹', '주차장']",₩₩,"금수복국은 본점인 해운대를 필두로 서울과 부산에 여러 지점을 둔 복어 요리 전문점이다. 1970년에 금수식장으로 문을 열어 50년 넘게 대를 이어 영업 중이다. 네 가지 종류의 복을 선택하여 먹을 수 있는데 은복은 쫄깃하고 고소하며 밀복은 크기가 큰 커서 매운탕에 많이 쓰인다. 까치복은 단맛이 나서 찜이나 수육으로 먹고, 참복은 가장 큰 사이즈로 식감이 단단하여 회로 먹기에 좋다고 한다. 복어 조리사 자격증 소지자만 수십 명에 달할 정도로 관리에 만전을 기하고 있다고 하니 본점을 찾아가 즐겨 보시는 건 어떨까.",plate
40,1195277,꿉당,바비큐,02-545-9600,"서초구 강남대로 615, Seoul, 06524, 대한민국",37.5166307,127.0188926,[],₩,돼지 목살 전문점 ‘꿉당’. 신사역 바로 앞에 위치한 꿉당은 15일간 숙성한 목살이 주 메뉴다. 직접 제작한 알루미늄 불판과 비장탄 위에서 빠르게 구워 낸 고기는 풍부한 육즙과 부드러운 지방이 일품이다. 일식 셰프의 컨설팅을 받았다는 쌀밥에 고추냉이를 곁들여 스시처럼 만들어 먹으면 육즙이 밴 부드러운 밥맛을 맛볼 수 있으니 꼭 함께 주문할 것.,bib
41,1207170,해목,일식,051-746-3730,"부산 해운대구 구남로 24번길 8, Busan, 48094, 대한민국",35.16174,129.15977,['에어컨'],₩₩,"외지인과 현지인의 발걸음이 꾸준히 이어지는 해목은 대중적인 일식 요리를 선보인다. 파란색 담장과 어딘가 이국적인 구조물이 주변과는 또 다른 분위기를 자아낸다. 원목 베이스의 인테리어와 다다미 좌석 역시 이국적 정취를 느끼게 하는 데 한몫한다. 해목은 일본식 덮밥 서너 가지와 사시미, 튀김, 타다끼 요리 등을 제공하지만 대표 메뉴는 뭐니뭐니 해도 히츠마부시이다. 그윽한 훈연의 풍미와 감칠맛 나는 소스의 맛을 머금은 우나기는 고슬고슬하게 지은 밥과 잘 어울린다. 해목은 부산 본점 외에 서울에서도 분점을 운영 중이다.",bib
42,1195338,스시 마츠모토,스시,02-543-4334,"강남구 도산대로 75길 24, Seoul, 06015, 대한민국",37.52535,127.04573,"['발렛파킹', '에어컨', '좋은 사케 리스트', '카운터 테이블']",₩₩₩₩,한국에서 스시 문화가 지금처럼 성장하기까지 많은 셰프들의 노력이 있었다. 특히 마츠모토 미즈호는 정통성을 로컬에서 표현하는 데 일가견이 있는 셰프로 손꼽힌다. 스시 마츠모토는 트렌디함을 추구하기보다 셰프가 일본 본토에서 익힌 스시 요리를 로컬에서 그대로 재현하는 데 많은 노력을 기울이고 있다. 샤리와 네타의 구성과 조합은 물론 손님을 접대하는 자세에서도 그러한 노력을 확인할 수 있다. 인상적인 츠마미 라인과 풍미의 강약이 자연스레 흐르는 니기리의 구성은 여전히 매력적이다.,1 star
43,512011,류니끄,이노베이티브,02-546-9279,"강남구 도산대로 45길 8-1, Seoul, 06021, 대한민국",37.52291,127.03599,"['발렛파킹', '에어컨']",₩₩₩₩,"류니끄는 2011년 오픈한 이후 식재료에 대한 연구와 해석에 공을 들여온 류태환 셰프의 창의적인 요리와 함께 성장해 왔다. 셰프는 절기와 계절의 변화에 맞춰 메뉴를 구성하고, 계절과 생산 지역에 따라 달라지는 식재료를 다루는 데 집중한다. 자신의 무한한 상상력을 요리에 반영할 줄 아는 셰프의 능력이 류니끄의 요리가 가진 독특한 매력의 비결이다. 단정하면서도 모던한 다이닝 공간은 1층의 셰프 연구실과 2층의 레스토랑으로 구분되어 있다. 참신함을 놓치지 않으면서도 맛에 대한 상상력을 자극하는 류니끄의 요리에는 특별한 즐거움이 있다.",plate
44,1206523,레벨제로,이노베이티브,010-2284-5979,"용산구 한강대로 15길 31-20, Seoul, 04379, 대한민국",37.52599,126.96222,['카운터 테이블'],₩₩₩,"용산역 뒤편 주택가에 위치한 레벨제로. ‘지상층’이라는 의미와 ‘제로 웨이스트 쿠킹을 추구한다’는 중의적인 뜻을 담은 업장명으로, 레스토랑 안에서 공간을 옮겨 다니며 코스 요리를 즐기는 컨셉의 다이닝을 즐길 수 있다. 지속가능한 다이닝을 고민한다는 셰프는 쓰고 남은 재료는 말려 가루를 내거나 발효해 다시 활용하며, 친환경 목장의 소고기만을 사용하는 노력을 기울이고 있다. 섬세하게 가꾼 정원을 형상화한 타르트나 레스토랑 공간을 본따 만든 디저트는 만듦새만큼이나 그 맛도 섬세하다. 고객의 동선이 겹치지 않도록 예약 시간을 조절한다고 하니 방문 전에 반드시 문의해 볼 것을 권한다.",plate
45,1206469,엘픽,스테이크하우스,010-6556-9757,"강남구 도산대로 78길 25, Seoul, 06063, 대한민국",37.52237,127.04659,"['발렛파킹', '주차장', '카운터 테이블']",₩₩₩,"제주에서 그릴 하우스로 유명했던 엘픽이 서울로 자리를 옮겼다. 드라이 에이징, 웻 에이징 및 밀랍을 이용한 숙성 스테이크를 선보이는 스테이크 하우스이지만 제주에서 올라오는 신선한 제철 오징어 구이나 세비체 요리도 맛볼 수 있다. 고기를 굽는 방식이 독특한데 저온의 숯불에서 구웠다 식히는 과정을 30분 이상 반복하여 질감의 부드러움과 육즙의 풍부함을 극대화한다. 고기 색이 붉어 보이지만 아주 잘 익은 상태다. 와인과 함께 곁들여 드시는 걸 추천한다.",plate
46,1206400,알레즈,프렌치,070-8868-1686,"용산구 독서당로 89, Seoul, 04419, 대한민국",37.53479,127.01029,"['발렛파킹', '에어컨']",₩₩₩,알레즈는 이병곤 셰프가 운영하는 프렌치 레스토랑이다. 그는 프렌치 퀴진을 경험하고 학습하기 위해 오랜 시간 성실히 노력해 왔다. 그런 성실한 시간의 힘이 담긴 그의 요리에는 기본에 대한 충실함과 식재료 고유의 맛을 살리려는 정직함이 녹아 있다. 모든 코스 요리에서 식재료와 소스의 어우러짐이 좋아 안정적이고 일관성 있는 프렌치 요리의 풍미를 즐길 수 있다. 이병곤 셰프가 클래식한 프렌치 소스 레시피에 자신만의 포인트를 입힌 소스가 특히 맛깔난다. 한국의 제철 식재료를 적극 활용한 잔잔한 풍미의 프렌치 요리를 차분하고 안락한 다이닝 공간에서 즐길 수 있다는 점이 이곳의 매력이다.,plate
47,1206188,이스트,컨템퍼러리,070-8855-0470,"강남구 언주로 170길 26-6, 3층, Seoul, 06017, 대한민국",37.5263,127.03556,"['발렛파킹', '에어컨', '카운터 테이블']",₩₩₩,"다양한 해석이 가능한 레스토랑의 이름처럼 요리의 다양성을 다채롭게 표현하는 레스토랑이다. 이스트의 조영동 셰프는 기존의 요리들을 자신만의 방식으로 재해석 하여 고객에게 즐거움을 선사한다. 조 셰프는 국내에서 흔히 볼 수 없는 재료를 조합해 요리의 맛을 새롭게 표현하기 위해 정성을 쏟는다. 카야 토스트를 모티브로 한 아뮤즈 부쉬(amuse bouche)는 물론, 한국의 갈비 요리를 다양한 버전으로 소개한 갈비 스톤 역시 익숙함 속에서 새로움을 추구하는 방식으로 고객에게 즐거움을 주는 요리들이다. 이처럼 새로움 이라는 컨셉을 중시하지만 요리 본연의 가치인 맛도 놓치지 않았다.",plate
48,1207029,나가하마 만게츠,라멘,051-731-0886,"해운대구 우동 1로 57, Busan, 48088, 대한민국",35.16664,129.15748,['카운터 테이블'],₩,해리단길 안쪽으로 깊숙이 들어가면 긴 줄이 보인다. 1960년대에 후쿠오카 나가하마에서 시작한 라멘 전문점이 부산에 처음 지점을 연 곳이다. 이곳의 라멘은 돈 사골을 오랜 시간 고아 낸 국물에 비법 간장을 넣어 진하면서도 무겁지 않은 맛을 낸다. 취향에 따라 면의 삶기 정도를 선택할 수 있고 생마늘이나 매운 소스를 첨가해 즐길 수도 있다. 짜게 느껴진다면 국물을 더 요청할 수도 있으니 망설이지 말고 취향껏 추가해 먹어볼 것을 권한다.,bib
49,1207002,율링,바비큐,010-5751-3323,"해운대구 달맞이길 62번길 28, 2층, Busan, 48098, 대한민국",35.15837,129.17324,"['주차장', '카운터 테이블']",₩₩₩,"달맞이길 초입 미포호텔 2층에 자리잡은 율링. 넓은 공간에 배치된 기다란 카운터 테이블에 앉으면 동백섬과 광안대교가 한눈에 들어오는 바다를 배경으로 식사를 즐길 수 있는 공간이다. 1++N.9 등급의 고급 한우만을 사용하여 다양한 부위를 맛볼 수 있도록 제공하는 것은 물론, 신선한 해산물에 일식과 유러피안이 적절히 가미된 요리를 조합해 조화로운 맛을 느낄 수 있도록 구성했다. 레스토랑의 상호 율링 역시 ‘조화’와 ‘균형’을 염두에 두고 지었다. 알맞게 제공되는 와인 페어링도 함께 즐겨 보시기를.",plate
50,570663,에빗,"이노베이티브, 한식",070-4231-1022,"강남구 도산대로 45길 10-5, Seoul, 06021, 대한민국",37.52334,127.0362,"['발렛파킹', '아주 좋은 와인 리스트', '에어컨', '주차장', '휠체어 가능']",₩₩₩₩,식재료를 야생에 나가 채집하고 메주를 손수 띄워 장을 담그는 조셉 리저우드 셰프의 레스토랑 에빗이 확장 이전하여 새롭게 문을 열었다. 조셉 리저우드 셰프에게 뻔하고 식상한 재료는 존재하지 않는다. 직접 잡은 개미로 산미를 더한 녹차식혜 소르베부터 우지 타르트와 깻잎 주스까지 에빗의 메뉴에는 셰프의 감각으로 재해석된 창의적 요리로 가득하다. 한국의 계절감을 살리면서 셰프의 독특한 해석을 가미한 에빗의 요리는 구색을 잘 갖춘 와인과 함께할 때 한층 더 빛을 발한다.,1 star
51,1206034,중화복춘 살롱,중식,010-5124-2207,"마포구 연남로 10, Seoul, 03989, 대한민국",37.56068,126.92335,"['에어컨', '주차장']",₩₩,"시대의 흐름에 맞춰 능동적인 변화를 꾀하는 요리는 그 변화 못지않게 전통에 대한 정확하고 바른 이해가 있어야 대중에게 진정성을 전달할 수 있다. 중화복춘 살롱의 남복춘 셰프는 중화요리의 발전적인 변화를 고민하고, 그러한 고민과 연구를 자신의 요리에 담고자 노력한다. 특히 좋은 요리의 근간인 식재료 선별에 각별히 노력을 기울이고 있고, 중국 현지 요리사들과 활발히 교류하면서 중화복춘 살롱의 요리에 점진적인 변화를 도모하고 있다. 중국의 전통 조리법을 바탕으로 현지인의 기호를 고려한 조리법을 적용하여 다양한 풍미의 요리를 선보이는 매력적인 중화요리 레스토랑이다.",plate
52,1192575,소울,컨템퍼러리,02-318-7685,"용산구 신흥로 26길 35, 지하 1층, Seoul, 04337, 대한민국",37.54533,126.98443,"['발렛파킹', '에어컨', '주차장', '카운터 테이블']",₩₩₩,"근대 서울의 흔적이 아직 남아 있는 해방촌에서 감각적인 파인 다이닝에 도전한 윤대현 셰프와 김희은 셰프의 소울. 이곳은 현대 한국에서 접할 수 있는 여러 식문화와 재료, 그리고 일상에서 접할 수 있는 익숙한 맛을 감각적으로 풀어낸 요리를 선보인다. 레스토랑 이름에는 여러 의미가 함축되어 있지만 그 이름처럼 소울이 담긴 요리를 전하고자 하는 셰프의 마음이 모든 음식에서 느껴진다. 윤 셰프는 자신의 반려자이자 동료인 김희은 셰프와 함께 건물 내부에 다양한 공간을 구성함으로써 여러 스타일의 다이닝을 즐길 수 있게 했다.",1 star
53,565633,팩피,이탤리언,02-6052-7595,"성동구 왕십리로 136, Seoul, 04789, 대한민국",37.54964,127.04456,['카운터 테이블'],₩₩,가족의 영향으로 어린 시절부터 자연스럽게 요리 인생을 꿈꿔온 이종혁 셰프. 국내외에서 다양한 경험을 쌓은 그는 팩피에서 대중적인 파스타 장르를 자신만의 창의적인 감성으로 풀어낸 간결하면서도 개성 넘치는 메뉴를 선보인다. 오픈 주방에서 고객과 소통하며 요리하는 순간이 무척이나 행복하다는 이 셰프. 팩피를 찾는 모든 고객이 편안하고 행복하게 식사를 즐길 수만 있다면 그걸로 만족한다는 그의 바람이 잘 투영된 공간이다.,bib
54,1192578,쉐시몽,프렌치,02-730-1045,"마포구 월드컵로10길 48, Seoul, 04003, 대한민국",37.55517,126.91419,[],₩₩,"프렌치 레스토랑 쉐시몽은 삼청동 시절부터 서교동으로 자리를 옮긴 지금까지 십수 년간 꾸준히 성장해 왔다. 이 식당을 운영하는 부부는 매년 일정 기간 동안 가게 문을 닫고 여행을 다니면서 식재료를 맛보고 연구한다. 여행에서 얻은 영감은 메뉴 개발로 이어진다. 요리 전공자가 아님에도 이들이 쉐시몽을 이만큼 성장시킬 수 있었던 데에는 이러한 끊임없는 노력과 겸손한 자세가 숨어 있다. 쉐시몽만의 단정하고 차분한 프렌치 요리는, 기본에 충실한 조리법과 좋은 식재료를 선별하는 과정을 통해 완성된다. 쉐시몽에서는 한 가지 코스 요리만 제공되며, 예약 인원에 따라 휴무일이 달라지는 독특한 시스템이라 예약은 필수이다.",plate
55,570654,묘미,컨템퍼러리,02-515-8088,"종로구 율곡로 83, 아라리오 스페이스 5층, Seoul, 03058, 대한민국",37.57781,126.98829,"['에어컨', '전망이 좋은', '주차장']",₩₩₩₩,nan,plate
56,1192580,안씨 막걸리,한식,010-9965-5112,"용산구 회나무로 3, Seoul, 04343, 대한민국",37.53858,126.9874,"['발렛파킹', '카운터 테이블', '휠체어 가능']",₩₩,"식사에 술을 곁들이는 ‘반주’라는 한국적 표현이 잘 어울리는 안씨 막걸리. 이곳의 매력은 획일적인 한국식 주점에서 탈피하여 전통적이지만 모던하고 세련된 감각의 한식이 부상하는 시대에 발맞추어 ‘한국 술집’의 방향성을 잘 표현하고 있다는 점이다. 계절 변화에 맞춰 제공되는 맛깔스러운 한국 요리와 안줏거리들, 여기에 시간과 함께 익어가는 한국의 술까지 편하게 즐길 수 있는 매력적인 곳이다. 가벼운 식사는 물론이고 흥겨운 술자리를 위한 장소로도 손색이 없다. 고객의 다양한 목적에 맞게 즐길 수 있는 레스토랑이다.",plate
57,512045,제로 컴플렉스,이노베이티브,02-532-0876,"용산구 서빙고로 59길 11-8, Seoul, 04384, 대한민국",37.52079,126.99285,"['발렛파킹', '에어컨', '주차장']",₩₩₩₩,시간이 지날수록 제로 컴플렉스의 요리는 뚜렷한 색깔을 뽐낸다. 맛의 조화와 균형을 가장 중요시하는 이충후 셰프의 접근법은 개성 있고 창의적인 요리로 이어진다. 신선한 허브와 채소를 활용하여 재료 본연의 맛을 최대한 살리기 위한 조리법에서 그의 고집스러운 요리 세계를 엿볼 수 있다.,1 star
58,1194920,물랑,"프렌치, 모던 프렌치",070-4404-7978,"종로구 자하문로 16길 8, Seoul, 03043, 대한민국",37.5814682,126.9718836,['에어컨'],₩₩₩,"서촌의 한적한 골목에는 주변과 다른 짙은 색의 외관으로 시선을 끄는 프렌치 레스토랑 ‘물랑’이 있다. 실내에 들어서면 앤틱한 인테리어를 비롯해 셰프가 그동안 수집해온 물랑(후추통) 컬렉션 장식이 시각적인 재미를 선사한다. 프렌치 요리에 계절의 풍미를 담아내려는 윤예랑 셰프의 의도는, 가끔은 섬세하고 때로는 선이 굵은 다양한 디테일과 균형감이 드러나는 요리에서 잘 드러난다. 제철 식재료를 활용하여 꾸준히 만들고 있는 피티비에 시리즈는 그녀의 요리 표현력이 잘 반영된 메뉴이다.",plate
59,1192574,산다이,일식,02-540-8854,"강남구 선릉로 148길 48, 6층, Seoul, 06064, 대한민국",37.52284,127.04338,"['발렛파킹', '에어컨', '카운터 테이블', '테라스']",₩₩₩,"산다이는 서울의 일식 부문에서 자신만의 영역을 만들어 가고 있는 문승주 셰프의 가이세키 레스토랑이다. 일본 간사이 지방의 분위기를 닮은 공간, 재료의 계절감과 주제, 테마를 반영한 클래식한 요리에는 가이세키의 의미에 대한 셰프의 마음가짐과 해석이 잘 표현되어 있다. 무엇보다 산다이는 재료의 본질을 이해하고 그 맛과 풍미를 끄집어내는 요리에 무게를 둔다. 식사 말미에 산다이의 특색 있는 말차를 손님들과 나누는 티 세리머니에서는 오리지날의 정취를 느낄 수 있다. 레스토랑 이름처럼 세대를 거듭해 손님을 모실 수 있는 공간을 만드는 것이 셰프의 바람이다. ",plate
60,548072,꽃밥에피다,한식,02-732-0276,"종로구 인사동 16길 3-6, Seoul, 03146, 대한민국",37.57535,126.98404,[],₩,"건강에 민감한 현대인들을 위해 친환경 유기농 재료만을 사용해 정갈한 한 끼 식사를 제공하는 ‘꽃밥에피다’는 인사동에 위치한 한식 레스토랑이다. 식재료뿐 아니라 인테리어, 담음새 등 구석구석 정성이 가득 느껴지는 이곳은 농인 법인에서 직접 운영하며, 유기농 농장에서만 재료를 납품받는다. 이곳의 대표 메뉴는 노란 달걀 지단 보자기에 단아하게 싸여 나오는 ‘보자기 비빔밥’. 지단을 걷으면 한 송이 꽃이 피어 있는 듯 밥 위에 곱게 놓여 있는 색색가지 나물들이 눈부터 즐겁게 만든다.",bib
61,511972,권숙수,한식,02-542-6268,"강남구 압구정로 80길 37, 4층, Seoul, 06016, 대한민국",37.52437,127.04355,"['발렛파킹', '아주 좋은 와인 리스트', '에어컨']",₩₩₩₩,"‘전문 조리사’를 뜻하는 ‘숙수’에서 착안해 이름 지은 ‘권숙수’는 권우중 셰프의 한식 레스토랑이다. 이곳에선 한식의 기본 맛을 좌우하는 장, 젓갈, 식초 등을 직접 담가 사용하는데, 이러한  정성이 권숙수만의 기품 있는 요리를 완성한다. 제철 식재료 중에서도 좀 더 진귀한 재료를 선별하고, 흔한 식재료일지라도 창의적인 조합을 통해 새로운 요리로 탄생시키는 권 셰프의 노력과 열정을 곳곳에서 발견할 수 있다. 좋은 음식을 위해서라면 일절 타협하지 않는 ‘숙수’의 고집이 고스란히 녹아 있는 이곳에서 한식의 깊은 맛을 느껴보길.",2 star
62,511985,밍글스,"한식, 코리안 컨템퍼러리",02-515-7306,"강남구 도산대로 67길 19, 2층, Seoul, 06016, 대한민국",37.52535,127.04426,"['발렛파킹', '아주 좋은 와인 리스트', '에어컨', '휠체어 가능']",₩₩₩₩,"따뜻한 여백의 미가 돋보이는 밍글스. 실내 디자인, 한국 음식의 정갈한 멋을 한층 더 살려 주는 도예 기물, 여기에 주방을 이끄는 강민구 셰프의 젊고 감각적인 재능까지, 다양한 전문가들의 감각과 감성이 하나의 공간에 모여 있다. 초창기부터 뚜렷한 한국적 색채를 기반으로 전통과 현대의 경계를 자유롭게 넘나들며 밍글스만의 맛과 멋을 창조해온 강민구 셰프는 매번 방문 시 한 걸음 더 진화된 요리를 선보인다. 밍글스만의 독특한 매력은 전복 배추선과 어만두처럼 경계를 허무는 요리에서 정점을 이룬다. 김민성 매니저가 이끄는 서비스 팀의 배려 깊은 고객 응대 역시 레스토랑의 가치를 한층 더 높여 준다.",2 star
63,570660,소이연남마오,타이,02-545-5130,"강남구 도산대로 53길 30, Seoul, 06019, 대한민국",37.52516,127.03889,"['발렛파킹', '에어컨']",₩₩,"‘소이연남마오’는 태국 음식 전문점 '소이연남'에서 운영하는 또 다른 음식점이다. '취하다'를 뜻하는 태국어 '마오'를 붙여 내추럴 와인을 즐길 수 있는 차별화된 공간이라는 점을 부각시켰다. 1층에서는 면과 쌀 요리 등 간단한 식사 주문이 가능하고, 2층에서는 와인과 함께 곁들일 수 있는 다양한 요리를 만날 수 있다. 태국 특유의 강렬한 맛과 향이 와인과 잘 어울릴까 의구심이 들 수도 있겠지만, 감칠맛과 산미가 두드러지는 내추럴 와인은 개성 강한 태국 음식과 좋은 궁합을 이룬다. 숯불의 풍미가 매력적인 부드러운 닭꼬치, 매콤달콤 항정살 구이, 속을 알차게 채워 바삭하게 튀겨 낸 태국식 춘권 뽀삐아, 똠얌 누들 등이 인기 메뉴다.",bib
64,548159,하동관,곰탕,02-776-5656,"중구 명동 9길 12, Seoul, 04538, 대한민국",37.56439,126.98501,['에어컨'],₩,"1939년부터 한결같은 맛으로 명성을 유지해온 명동의 터줏대감 하동관. 오랜 세월의 노하우가 고스란히 담긴 이곳의 곰탕은 깔끔하면서도 깊은 맛을 자랑한다. 곰탕 한 그릇에 양지, 내포, 양 등 소의 다양한 부위를 골고루 푸짐하게 내오는 것이 이 집의 특징이다. 맑은 고깃국물에 밥을 토렴해 내오는 곰탕에 다진 파를 넉넉하게 얹어 서울식 깍두기와 함께 먹으면 든든한 한 끼 식사로 그만이다. 분주한 아침과 점심시간에는 줄 서서 기다려야 하며, 다른 손님들과 합석하는 경우도 빈번하다. 이곳은 그날 준비한 분량을 모두 소진하면 영업을 종료한다. 계산은 선불제이고, 포장도 가능하다.",bib
65,512038,우래옥,냉면,02-2265-0151,"중구 창경궁로 62-29, Seoul, 04546, 대한민국",37.56815,126.99866,"['발렛파킹', '에어컨', '주차장']",₩,"서울 시내 최고의 평양식 냉면 전문점 중 하나로 손꼽히는 우래옥은 1946년 개업한 이래 꾸준히 전통을 이어오고 있는 유서 깊은 레스토랑이다. 이 집의 대표 메뉴는 전통 평양냉면과 불고기. 오랜 세월에 걸쳐 습득한 노하우와 국내산 재료만을 사용하는 뚝심으로 한결같은 맛을 자랑하는 냉면과 고품질의 한우를 제공한다. 레스토랑 내부가 상당히 넓은 편이라 많은 손님들이 몰리는 바쁜 시간에도 효율적인 좌석 배치가 가능하지만, 그럼에도 문 앞엔 항상 긴 줄이 늘어서 있다.",bib
66,1199429,시오,"컨템퍼러리, 재패니즈 컨템퍼러리",02-6013-5110,"강남구 도산대로54길 33, Seoul, 06056, 대한민국",37.5205428,127.0391949,"['발렛파킹', '에어컨', '주차장', '카운터 테이블']",₩₩₩,"시오의 요리에는 틀과 규격에서 벗어난 자유분방함이 있다. 한 가지 요리에서 다양한 요리 문화와 기법들이 엿보이고 그것들이 서로 어우러져 새로움을 표현하기 때문이다. 그럼에도 그 자유분방함과 새로움 속에는 한국의 사계절과 다양한 절기를 반영한 식재료 선정과 맛의 조화를 염두에 둔 셰프만의 꼼꼼한 규칙들이 존재한다. 주방을 이끄는 셰프의 경험이 온전히 녹아 있는 시오의 창의적인 요리는, 계절감이 담긴 한국의 제철 식재료와 어우러져 매력적인 맛을 고객들에게 선사한다.",plate
67,548148,옳음,컨템퍼러리,02-549-2016,"강남구 선릉로 152길 37, 3층, Seoul, 06016, 대한민국",37.52451,127.04266,"['발렛파킹', '에어컨', '카운터 테이블']",₩₩₩₩,"옳음은 ‘옳다’ 혹은 ‘바르다’를 의미하는 우리말에서 따온 이름으로 ‘한결같이 정직한 음식을 만들겠다’는 서호영 셰프의 다짐이 반영되어 있는 곳이다. 식당을 운영하셨던 할머니와 부모님의 영향으로 요리를 시작한 그는 남도에서 부모님이 직접 농사지어 보내주시는 신선한 재료와 해외에서 익힌 경험을 바탕으로 장르의 경계를 넘나드는 창의적인 요리를 선보인다. 그중에서도 민물새우와 액젓, 된장으로 깊은 맛을 낸 ‘새우 성게장 비빔면’은 익숙한 재료에 본인만의 색깔을 입혀 새로운 맛을 끌어내는 서 셰프의 요리 스타일을 단적으로 보여주는 예라 할 수 있다.",plate
68,548112,미나미,소바,02-522-0373,"서초구 서초대로 58길 31-2, Seoul, 06632, 대한민국",37.4933,127.0181,"['에어컨', '주차장', '카운터 테이블']",₩,일식 분야에서 다양한 경험을 쌓은 남창수 셰프의 소바 전문점 미나미. 무궁무진한 일식 요리 중 굳이 소바를 선택한 이유는 부지불식간에 메밀 면 특유의 은은한 매력에 빠졌기 때문이라고 한다. 그는 일식 소바의 오랜 역사와 전통을 존중하는 동시에 자신만의 개성이 묻어나는 다양한 소바 요리를 선보이고 있다. 그윽한 불 향의 간장조림 붕장어를 올린 아나고난방과 교토에서 직접 공수한 간장조림 청어를 올린 니신난방이 이곳의 대표 메뉴다. 소바 외에 생선구이와 튀김 요리 같은 단품 요리도 제공한다.,plate
69,548152,익스퀴진,컨템퍼러리,02-542-6921,"강남구 삼성로 140길 6, Seoul, 06073, 대한민국",37.52099,127.04965,['발렛파킹'],₩₩₩,"장경원 셰프의 익스퀴진. 최대한 한국적인 재료를 사용하고 재료 각각의 개성에 초점을 맞춰 새로운 맛을 창조하고자 하는 셰프의 실험 정신이 그의 요리에 그대로 묻어난다. 레스토랑 내에서 직접 재배한 허브와 산지 직거래로 공급받는 싱싱한 재료로 만든 음식을 합리적인 가격에 제공한다. 점심 코스 메뉴와 저녁 코스 메뉴가 한 가지씩 준비되어 있고, 식재료나 주방 사정에 따라 메뉴가 수시로 변경된다. 공간이 아담한 만큼 예약은 필수다.",1 star
70,512040,우가,바비큐,02-6272-2223,"강남구 도산대로 49길 22, 지하 1층, Seoul, 06019, 대한민국",37.52432,127.03734,"['발렛파킹', '에어컨', '주차장']",₩₩₩,한우의 본고장인 횡성을 시작으로 2015년 서울에 둥지를 튼 우가는 최상급 건조 숙성 한우를 완전히 익혀 제공하는 독특한 콘셉트로 주목받아왔다. 이 방법은 허세병 셰프가 ‘Meat Science(고기 과학)’라는 슬로건 아래 오랫동안 고민하고 연구한 끝에 얻은 결과로 소고기의 풍미를 최대한 살려주는 것이 특징이다. 우가의 대표 메뉴인 숙성 꽃등심과 차돌박이 외에도 당뇨를 앓던 가족을 위해 셰프의 어머니가 오랜시간 발효시킨 장으로 끓인 토장찌개 또한 많은 사랑을 받고 있다.,plate
71,511943,구복만두,딤섬,02-797-8656,"용산구 두텁바위로 7, Seoul, 04335, 대한민국",37.54501,126.97318,[],₩,"한국인 남편과 중국인 아내가 운영하는 구복만두는 좋은 재료로 정성껏 빚은 맛있는 만두를 저렴한 가격에 즐길 수 있는, 가격 만족도가 훌륭한 식당이다. 이곳의 대표 메뉴는 뜨거운 기름에 노릇하게 구운 후 자작하게 물을 부어 수분이 모두 증발할 때까지 찌는 일명 ‘물에 튀긴 만두’다. 스테디셀러인 샤오롱바오와 통새우 만두에 김치 만두도 별미. 테이크아웃도 가능하며, 주류는 판매하지 않는다.",bib
72,511956,이문설농탕,설렁탕,02-733-6526,"종로구 우정국로 38-13, Seoul, 03149, 대한민국",37.57272,126.98388,"['에어컨', '주차장']",₩,"1900년대 초, 한국의 첫 음식점으로 공식 기재된 종로구 견지동의 이문설농탕. 100여 년이 넘는 역사를 자랑하는 이곳은 오래전 최초로 개업했을 당시 사용했던 ‘설농탕’이라는 이름을 지금까지 고수하고 있다. 큰 무쇠솥에 17시간 동안 사골을 고아 기름을 말끔히 제거한 후 남은 뽀얗고 맑은 국물 맛이 이 집의 자존심이라 할 수 있다. 전성근 대표는 “좋은 재료로 대중음식점에 걸맞은 단순하지만 맛있는 음식을 제공하는 것이 목표”라고 말한다. 원하는 고기 양에 따라 보통 혹은 특을 선택할 수 있다.",plate
73,512028,테이블 포 포,컨템퍼러리,02-3478-0717,"서초구 사평대로 14길 11, 2층, Seoul, 06575, 대한민국",37.49775,126.99436,['발렛파킹'],₩₩,"테이블 포포는 충남 태안의 풍광을 맞고 자란 농산물과 계절에 따라 맛의 절정을 보여 주는 각종 해산물이 특징이다. 셰프는 고향에 대한 애정은 물론, 좋은 식재료를 고객에게 전하고자 하는 순수한 마음으로 태안의 우수한 식재료를 자신의 식탁에 옮겨 놓았다. 특히 태안에서 직접 농사를 짓는 셰프 가족의 노력이 셰프와 테이블 포포가 지향하는 로컬 푸드의 토대라 할 수 있다. 셰프는 자신의 노련한 솜씨를 가미하기도 하고 때로는 개입을 최소화하기도 하면서 태안의 식재료를 근사한 요리로 탈바꿈시킨다. 테이블 포포에서 태안의 풍미가 담긴 유러피안 퀴진의 매력에 빠져 보기 바란다.",plate
74,512006,필동면옥,냉면,02-2266-2611,"중구 서애로 26, Seoul, 04624, 대한민국",37.56035,126.99689,"['에어컨', '주차장']",₩,중구 필동에 자리하고 있는 남산골 한옥마을 인근의 평양냉면 레스토랑. 내로라하는 평양냉면 전문점 중 하나인 필동면옥은 오랜 세월 많은 이들에게 사랑받아왔다. 자칫 특징 없이 밍밍하다고 느낄 수 있을 만큼 깔끔한 맛을 자랑하는 이곳 육수에서 나는 섬세한 육 향과 은은한 감칠맛에 중독되어 단골이 된 손님들도 많다고. 두툼하면서도 부드럽고 촉촉한 돼지 수육은 이 집의 또 다른 명물이다. 정통 평양냉면을 선보이는 곳들 중에서도 특유의 섬세함을 가장 잘 표현해낸다는 평을 받는 곳이기도 하다.,bib
75,1199528,알고리즘,"컨템퍼러리, 재패니즈 컨템퍼러리",010-3015-3869,"강남구 도산대로 49길 8, 2층, Seoul, 06019, 대한민국",37.5233164,127.0374241,"['발렛파킹', '에어컨', '카운터 테이블']",₩₩₩,"양민우 셰프는 요리와 함께한 일본에서의 다양한 경험과 삶을 알고리즘의 요리에 반영하여, 일식을 기반으로 하지만 그 문턱을 낮춰 양식과의 다양한 조합을 시도함으로써 완성도 높고 균형 잡힌 요리를 추구한다. 한국의 사계절을 반영한 연중 4번의 메뉴 변경은 앞선 계절과의 유기적인 연결성을 고려하고, 식재료 본연의 풍미가 돋보이면서 소스와의 균형 있는 맛의 조화를 고려한 메뉴를 만들어내고 있다. 계절별로 변화하는 알고리즘의 모던 퀴진에서 일식과 양식이 조합된 요리의 다양한 변주를 즐겨 보기 바란다.",plate
76,570672,팔레드 신,중식,02-317-4001,"중구 퇴계로 67, 레스케이프 호텔 6층, Seoul, 04529, 대한민국",37.55983,126.97949,"['발렛파킹', '에어컨', '주차장', '휠체어 가능']",₩₩₩,"우아한 프렌치 감성이 물씬 풍기는 레스케이프 호텔에서 유일하게 동양의 맛과 멋을 느낄 수 있는 곳, 중식당 '팔레드 신'이다. 가장 화려했던 시절에 상하이가 가지고 있던 아름다움을 모던한 다이닝 공간으로 풀어 냈다. '팔레드 신'은 전통 중식의 맛을 추구하지만 때로는 현대적인 색깔을 과감하게 요리에 입히기도 한다. 이곳에서는 중국의 지역적 특색이 반영된 요리를 다양하게 즐길 수 있는데 그 중 하나가 바로 딤섬이다. 지역색이 뚜렷한 북경 오리 역시 인기 메뉴다.",plate
77,565609,금돼지식당,바비큐,010-4484-8750,"중구 다산로 149, Seoul, 04607, 대한민국",37.55705,127.01165,"['에어컨', '카운터 테이블']",₩,"신당동 길가에 자리한, 흰색 타일에 황금색 간판이 눈에 띄는 금돼지식당은 식사 시간이 아닌데도 문밖으로 길게 줄 서 있는 풍경이 낯설지 않을 만큼 인기가 높다. 이곳의 대표는 살코기의 풍부한 육즙, 탄력 있고 쫄깃한 식감, 그리고 지방의 풍미가 잘 살아 있는 돼지 품종을 찾기 위해 오랜 시간을 투자했는데, 그 답은 요크셔와 버크셔, 그리고 듀록 돼지의 교배종인 YBD 돼지에 있었다고 한다. 갈비뼈가 붙어 있는 본삼겹과 등 목살 등의 특수 부위를 연탄불에 달군 주물 판에 구우면 고기가 타지 않고 맛있게 익는다. 그 흔한 돼지고기지만, 한번 맛보면 절대 잊을 수 없을 것이다. 예약은 받지 않는다.",bib
78,512041,용금옥,추어탕,02-777-4749,"종로구 자하문로 41-2, Seoul, 03036, 대한민국",37.57972,126.97088,['에어컨'],₩,1932년에 영업을 개시한 오랜 전통의 추어탕 전문점 용금옥. 종로구에 위치한 한정자 대표의 용금옥은 중구의 용금옥과 한 뿌리를 두고 있으나 현재는 각자의 길을 걷고 있다. 한국의 대표적 보양식인 추어탕을 사시사철 제공하는 이곳에선 서울식 통추어탕과 삶은 미꾸라지를 갈아 넣은 남도식 추어탕을 함께 선보인다. 좋은 재료로 정성껏 준비하는 모든 음식에는 오랜 세월 용금옥을 지켜온 주인장의 애정 어린 손맛이 고스란히 담겨 있다. 계절을 불문하고 많은 이들의 사랑을 받고 있는 따뜻한 추어탕 한 그릇이 아련한 추억을 선사한다.,bib
79,548068,게방식당,게장,010-8479-1107,"강남구 선릉로 131길 17, Seoul, 06060, 대한민국",37.51727,127.03942,['주차장'],₩,"흡사 소담한 카페테리아나 베이커리를 연상시키는 외관과는 달리 이곳은 게장 전문점이다. 패션 마케터 방건혁 대표와 25년간 게장 전문점을 운영해온 부모님의 합작으로 탄생한 게방식당에선 게장이라는 한식 메뉴를 보다 다양한 고객층에게 선보이고자 노력한다. 이곳엔 간장게장과 양념게장 세트뿐만 아니라 좀 더 먹기 수월한 게알 백반, 전복장 백반, 새우장 백반까지 다양한 메뉴가 준비되어 있다. 세트에는 기본적으로 밥과 국, 기본 반찬을 함께 제공하며, 테이크아웃도 가능하다.",bib
80,511863,콘티넨탈,프렌치,02-2230-3369,"중구 동호로 249, 신라호텔 23층, Seoul, 04605, 대한민국",37.5558213,127.00517,"['발렛파킹', '에어컨', '전망이 좋은', '주차장', '휠체어 가능']",₩₩₩₩,"신라호텔 23층에 자리한 클래식 프렌치 레스토랑. 내부 인테리어와 테이블웨어 역시 모던하기보다는 고전적인 분위기가 돋보인다. 이곳에선 두 가지 세트 메뉴를 선보이는데, 훌륭한 식재료로 만든 정통 프렌치 요리의 고급스러운 플레이팅과 뛰어난 맛은 좋은 인상을 남기기에 충분하다. 한마디로 서비스, 분위기, 맛이라는 세 가지 요소를 모두 충족시키는 기본이 탄탄한 레스토랑이라 할 수 있다. 서울 시내가 한눈에 내려다보이는 탁 트인 전망 역시 콘티넨탈이 제공하는 즐거움 중 하나다.",plate
81,511852,부촌육회,육회,02-2267-1831,"종로구 종로 200-12, Seoul, 03195, 대한민국",37.57034,126.99991,[],₩,"국내 최초 사설 시장인 광장시장의 육회 골목 한편에 자리 잡고 있는 부촌육회. 1965년에 부촌 식당으로 개업한 이곳은 1980년대부터 갈비탕과 함께 전라도식 육회를 조금씩 선보이기 시작했다. 고추장 양념에 버무리는 전라도식 육회를 참기름과 배를 넣은 서울식 육회로 바꾼 이유는 손님들의 입맛에 맞추기 위해서다. 매일 아침 공급받는 신선한 국내산 쇠고기를 사용해 고소한 맛이 일품이다. 이곳에선 육회뿐만 아니라 육회 물회, 육회 비빔밥 같은 메뉴도 선보여 한 끼 식사로 즐기기에도 더할 나위 없다. 광장시장의 활기찬 분위기는 덤이다.",bib
82,548132,옥동식,돼지국밥,010-5571-9915,"마포구 양화로 7길 44-10, Seoul, 04035, 대한민국",37.55261,126.91449,"['에어컨', '카운터 테이블']",₩,"돼지국밥에 대한 선입견을 완전히 뒤엎어버린 옥동식. 이곳의 돼지국밥 또는 돼지 곰탕은 지리산 버크셔 K 흑돼지의 앞다리와 뒷다리 살만을 고아 육수가 유난히 맑은 것이 특징이다. 한소끔 김을 뺀 밥과 80%만 익혀 얇게 썬 고기를 방짜유기에 담은 후 뜨거운 육수를 부으면 고기는 마저 익고, 육수는 더 깊게 우러나 담백하면서도 진한 감칠맛을 낸다. 특곰탕은 고기 양이 두 배다. 10석밖에 없는 작은 공간에 1일 100그릇만 한정 판매하고 있으니 방문을 서두르기 바란다.",bib
83,511977,레스쁘아 뒤 이부,프렌치,02-517-6034,"강남구 도산대로 59길 16, Seoul, 06016, 대한민국",37.5245,127.04227,"['발렛파킹', '에어컨', '테라스']",₩₩₩,nan,plate
84,512044,역전회관,불고기,02-703-0019,"마포구 토정로 37길 47, Seoul, 04155, 대한민국",37.566,126.9784,['에어컨'],₩₩,"1962년에 ‘역전식당’으로 시작해 90년대에 ‘역전회관’으로 상호를 변경한 50년 전통의 한식 레스토랑. 이곳의 명물은 국물 없이 바삭하게 즐기는 바싹 불고기로, 메뉴명을 특허청에 등록한 바싹 불고기의 원조라 할 수 있다. 활활 타오르는 센 불에 구웠지만 촉촉한 육즙과 부드러운 식감이 그대로 살아 있는 고기에 달지 않은 양념 맛이 일품으로 보통 맛과 매운맛 중 선택이 가능하다. 이곳은 4층 건물 전체를 사용하므로 넓은 공간에서 편안한 식사를 즐길 수 있지만 그래도 저녁 시간에는 예약하고 올 것을 추천한다.",bib
85,511973,라연,"한식, 모던 요리",02-2230-3367,"중구 동호로 249, 신라호텔 23층, Seoul, 04605, 대한민국",37.555813,127.00517,"['발렛파킹', '에어컨', '전망이 좋은', '좋은 사케 리스트', '주차장', '휠체어 가능']",₩₩₩₩,"품격 있는 한식 정찬을 선보이는 라연은 전통 한식을 현대적인 조리법으로 세련되게 표현해낸다. 전망 좋은 신라호텔 23층에 자리해 시원한 남산 경관을 감상할 수 있는 이곳은 한국의 전통 문양을 활용한 기품 있는 인테리어가 인상적이다. 우아하고 편안한 식사 경험을 제공하기 위해 구비한 고급 식기와 백자를 형상화한 그릇은 레스토랑이 지향하는 또 다른 차원의 섬세함을 잘 드러낸다. 현대적으로 재해석한 메뉴에 와인을 조합해 즐길 수 있으며, 요구하지 않아도 세심한 배려가 돋보이는 서비스는 이곳의 또 다른 매력이다.",2 star
86,548155,진미 평양냉면,냉면,02-515-3469,"강남구 학동로 305-3, Seoul, 06061, 대한민국",37.516114,127.036202,['발렛파킹'],₩,"“유명 평양냉면 식당에서 쌓은 20년의 경험과 노력의 결과물이 바로 진미 평양냉면”이라 말하는 임세권 셰프. 고객이 만족할 만큼 맛있는 냉면을 만드는 것이 그의 첫 번째 목표이고, 언제 찾아도 한결같은 맛을 즐길 수 있게 일관성을 유지하는 것이 두 번째 목표라고 한다. 다른 어떠한 요소 없이 오직 맛으로만 승부하고 싶다는 그의 마음가짐에서 냉면 장인의 고집스러움이 느껴진다. 냉면 외에도 편육, 제육, 불고기 같은 냉면집 단골 메뉴를 비롯해 접시 만두와 어복쟁반, 온면도 맛볼 수 있다.",bib
87,512009,평양면옥,냉면,02-2267-7784,"중구 장충단로 207, Seoul, 04615, 대한민국",37.56325,127.00664,"['발렛파킹', '에어컨', '주차장']",₩,"장충동에서 3대째 평양냉면의 전통을 이어오고 있는 평양면옥은 서울의 유서 깊은 레스토랑으로 무더운 여름철, 입구에 길게 줄지어 있는 냉면 애호가들의 행렬로도 유명한 곳이다. 유난히 맑고 투명한 이 집의 냉면 육수는 은은한 육 향을 품고 있으며, 자극적이지 않고 깔끔한 맛이 일품이다. 냉면 외에도 다양한 메뉴를 선보이는데, 만두소를 푸짐하게 넣은 평양식 손만두와 얇게 썰어 따뜻하게 내오는 제육도 인기 메뉴다.",plate
88,548128,양양 메밀 막국수,메밀국수,02-3482-3738,"서초구 동광로 15길 10, Seoul, 06561, 대한민국",37.49247,126.98826,[],₩,"100% 순수 메밀만을 사용하고 주문을 받은 후에 제면 작업을 시작하는 것을 원칙으로 하는 것이 양양 메밀 막국수의 비결이라면 비결이다. 십 수년간 메밀 막국수 식당을 운영해온 이유도 대표 자신이 막국수를 너무 좋아해서라고. 메밀 막국수가 대표 메뉴지만 직접 담근 김치를 이용한 김치 비빔국수 또한 이곳의 별미다. 기본 상차림은 단출하지만 정성이 가득하고, 무엇보다 주력 메뉴인 막국수 맛이 변함없이 훌륭하다. 11월 김장철에는 열흘간 영업을 하지 않으니 참고하기 바란다.",bib
89,1206760,임프레션,컨템퍼러리,02-6925-5522,"강남구 언주로 164길 24, 5층, Seoul, 06020, 대한민국",37.52545,127.03545,"['발렛파킹', '에어컨']",₩₩₩₩,"Refined와 Essence, 각각 ‘정제된’과 ‘본질’을 뜻하는 두 단어를 모토로 내걸고 두 번째로 문을 연 임프레션. 장소는 그대로이지만 구성원과 음식의 스타일이 완전히 바뀌어 전혀 다른 레스토랑으로 재탄생했다. 윤태균 셰프가 이끄는 이곳은 메뉴에 적힌 재료를 음식에서 고스란히 확인할 수 있다는 게 특징이다. 즉 재료 본연의 맛에 집중해 직관적인 맛을 선보이면서도 소스에 다채롭고 풍부한 맛과 향을 가미해 주 재료를 섬세하게 부각시킨다. 플레이팅은 언뜻 정제되어 보이지만 다양하고 미묘한 소스를 음미하다 보면 재료가 가진 본연의 맛을 느끼게 된다. 셰프의 섬세함이 돋보이는 직관적인 음식을 맛볼 수 있는 곳이다.",1 star
90,1202880,레스토랑 주은,"한식, 클래식 퀴진",02-540-8580,"서울 종로구 경희궁길 36, 경희당 8층, Seoul, 03175, 대한민국",37.57276,126.96991,"['에어컨', '주차장']",₩₩₩₩,"경희궁 뒤편에 자리잡은 한식당 '주은'. 한식 공간의 헤드 셰프 출신인 박주은 셰프와 팀 멤버들이 함께 문을 연 공간으로 한국의 미를 곳곳에서 보여주는 디자인을 비롯해 장인들과 함께 만든 아름다운 기물들, 홀의 벽면을 채운 미디어 아트 월 등 정성들여 준비한 흔적이 느껴지는 장소이다. 깨를 이용해 국물을 내고 닭다리살과 방아잎을 넣어 만든 임자수탕, 가리비와 조개, 새우를 듬뿍 넣고 향긋한 해방풍 나물을 넣은 죽까지 한국의 전통을 담은 메뉴들을 만나볼 수 있다. 탄탄한 전통주와 와인 리스트에서 또 다른 즐거움을 만나보시길.",plate
91,1205878,사루카메,라멘,,"마포구 연남로 15, Seoul, 03990, 대한민국",37.56103,126.92267,"['에어컨', '카운터 테이블']",₩,"사루카메는 현재 2대째 혼마 히로토 오너 셰프가 운영을 하고 있다. 그는 단순히 식당 이름만을 이은 것이 아닌, 1대 셰프와의 교감으로 기존 레시피도 보존하여 레스토랑의 발자취를 이어 간다. 이렇게 레스토랑의 역사를 지키며 세계 각국의 도시에서 쌓은 자신의 외식업 경험과 감각을 살려 사루카메만의 새로운 이야기를 만들어 가고 있다. 사루카메는 일본에서 유행하는 라멘의 맛에 전통의 맛과 창작의 맛을 더한 한정 메뉴를 꾸준히 개발해 소개하면서 레스토랑 고유의 라멘 브랜드를 만들어 고객과 소통하고 있다.",bib
92,1206023,담택,라멘,02-336-0974,"마포구 월드컵로 8길 34, Seoul, 04035, 대한민국",37.55316,126.91412,['에어컨'],₩,합정역 인근의 한적한 골목길 한 켠에 위치한 소박한 라멘집이다. 이미 세월의 흔적이 묻어 있는 공간이지만 조원현 셰프는 담택의 공간을 의도적으로 빈티지 소품으로 꾸몄다. 소박한 공간과는 달리 이곳의 시오 라멘을 비롯해 시오 라멘 베이스에 맛의 변주를 가한 각종 라멘 메뉴는 소박함과는 거리가 멀다. 세련되면서도 깔끔한 수프의 맛이 꽤나 개성 있고 중독성 있는 여운을 준다. 틀에 얽매이지 않는 맛을 개발하기 위해 우직하게 시오 라멘에 집중한 셰프의 라멘에는 누구나 즐길 수 있는 맛이 담겨 있다.,bib
93,570665,온지음,한식,02-6952-0024,"종로구 효자로 49, 4층, Seoul, 03043, 대한민국",37.58048,126.97345,"['에어컨', '전망이 좋은', '주차장', '카운터 테이블']",₩₩₩₩,"경복궁 돌담길이 가진 전통미와 '온지음 맛공방'이 위치한 주택가의 현대미가 길 하나를 사이에 두고 조화롭게 공존한다. 레스토랑 내부에서 확인할 수 있는 한국의 전통 의식주 양식 역시 모던한 외관과 대조를 이루며 과거와 현재가 공존하고 있음을 느끼게 한다. '온지음'이 운영하는 식문화 연구소이자 레스토랑이기도 한 이곳에서는 조선 왕조 궁중 음식 이수자 조은희 방장과 박성배 연구원, 그리고 이들이 이끄는 젊은 팀원들이 온고지신의 마음으로 한식의 전통을 이어가고 있다. 뚜렷한 사계절을 반영하는 음식에서 한식의 깊은 뿌리를 느낄 수 있고, 오랜 연구 끝에 탄생한 아름다운 음식을 통해 감동을 얻을 수 있는 곳이다.",1 star
94,1210650,비네토,이탤리언,010-2981-8078,"수영구 수영로 522번길 55, Busan, 48299, 대한민국",35.15182,129.11473,['에어컨'],₩,"비네토는 알마요리학교에서 이탈리아 요리를 배우던 주인장 부부가 결혼 후 부산에 정착해 문을 연 레스토랑이다. 레스토랑 건물은 이들 부부가 집과 식당으로 쓰기 위해 지었는데 천장과 가구가 나무로 되어 있어 아늑하고 포근한 분위기를 선사한다. 이탈리안 와인바 비네토는 정통 이탈리아 음식은 물론, 쉽게 접하기 힘든 이탈리안 내추럴 와인까지 곁들일 수 있으며 파스타와 햄을 모두 직접 만들어 식감과 풍미가 뛰어나다. 편안한 분위기에서 맛있는 음식과 와인을 즐기고 싶다면 예약은 필수다. 예약은 30분 단위로 받는다.",plate
95,1210543,러브얼스,비건,070-4647-2420,"수영구 광안로 49번길 32-1, Busan, 48296, 대한민국",35.15644,129.1185,['에어컨'],₩,"광안초등학교 뒤편 골목에 위치한 러브얼스는 비건 요리 전문 레스토랑이다. 친숙한 일상의 메뉴를 비건 스타일로 선보이는 곳으로 캐주얼한 요리에서 한 끼 든든히 즐길 수 있는 요리까지 러브얼스는 요리의 경계를 정하지 않고 다양한 시도를 하고 있다.. 김한솔, 정명원 대표는 덮밥과 파스타, 우동, 수프 같은 일상의 요리를 온전히 비건식으로 선보이기 위해 비건 메뉴에 대한 자신들의 경험과 고민을 재기 발랄한 아이디어로 풀어 낸다. 여건상 다양한 메뉴를 제공하기는 어렵지만 주기적으로 메뉴에 변화를 줌으로써 비건식의 다양성과 미식의 즐거움을 손님들에게 선사하고 있다.",bib
96,512018,스와니예,이노베이티브,02-3477-9386,"강남구 강남대로 652 신사스퀘어 2층 201호, Seoul, 06027, 대한민국",37.51933,127.01903,"['발렛파킹', '아주 좋은 와인 리스트', '에어컨', '주차장', '카운터 테이블', '휠체어 가능']",₩₩₩₩,nan,2 star
97,1209158,레귬,"비건, 베지테리안",0507-1365-1567,"강남구 강남대로 652, 신사 스퀘어 2층, Seoul, 06027, 대한민국",37.51938,127.01932,"['에어컨', '주차장', '채식메뉴 제공', '카운터 테이블']",₩₩,nan,plate
98,1209990,맷돌,멕시칸,010-4886-2928,"성동구 성덕정길 63, Seoul, 04775, 대한민국",37.53808,127.05065,['에어컨'],₩,"레스토랑 맷돌은 남다른 도전 의식을 가지고 요리사로서 실력을 키워온 이창윤 셰프의 멕시칸 퀴진 레스토랑이다. 그가 가장 공을 들이는 건 멕시코 요리에 두루 쓰이는 토르티야다. 맷돌에 가면 그가 멕시코에서 배운 대로 마사를 손으로 눌러 가며 토르티야를 만드는 모습을 종종 볼 수 있다. 이렇게 셰프가 직접 만든 토르티야가 들어간 맷돌의 토스타다와 타코를 먹어 보면, 식감과 풍미가 천편일률적인 기존의 토르티야 요리와는 차원이 다르다는 것을 느끼게 된다. 셰프가 배우고 익힌 여러 요리 스타일을 한국의 제철 식재료에 접목시켜 완성한 맷돌의 멕시칸 퀴진은 직관적인 맛으로 미식가의 입을 즐겁게 한다.",bib
99,1202955,강민철 레스토랑,"프렌치, 프렌치 컨템퍼러리",02-545-2511,"강남구 도산대로 68길 18, 지하 1층, Seoul, 06064, 대한민국",37.522448,127.044515,"['발렛파킹', '아주 좋은 와인 리스트', '에어컨']",₩₩₩₩,"거장이라 불릴 만한 경지에 오른 요리사들과 함께했던 시간은 강민철 셰프에게 요리에 대한 열정과 철학, 자부심은 물론 자신이 나아가야 할 방향에 대한 큰 동기를 부여했다. 이렇듯 그의 이름을 내건 레스토랑의 요리에는 그가 진중하게 걸어온 요리사로서의 자세와 방향성이 오롯이 담겨져 있다. 묵직한 풍미의 다양한 클래식 프렌치 소스를 기반으로 변화무쌍하게 맛의 조합을 이끌어 내는 강민철 레스토랑의 요리는 세련된 프렌치 퀴진의 다양한 스타일을 보여주면서도 중심이 잘 잡힌 프렌치 퀴진 본연의 깊이 있는 맛의 흐름도 잘 표현하고 있다. 공간이 넓지 않아 예약이 쉽지는 않지만 그만큼의 멋진 다이닝 경험을 얻을 수 있을 것이다.",1 star
100,1210122,마테르,"컨템퍼러리, 스칸디나비안",02-518-5879,"강남구 언주로 154길 16 지하 1층, Seoul, 06021, 대한민국",37.52337,127.03464,"['발렛파킹', '에어컨']",₩₩,"김영빈 셰프는 발효라는 요리 기법을 중심으로, 자신이 먹고 자란 한식 요리와 아시안 요리, 그리고 셰프로서 경험한 웨스턴 퀴진과 노르딕 퀴진을 자유롭게 재해석한 요리를 마테르에서 선보이고 있다. 그는 발효를 통해 식재료의 풍미와 식감에 독특한 변화를 입히고 이렇게 완성된 식재료를 때로는 섬세하게 때로는 강렬하게 요리에 활용함으로써 발효의 풍미를 다채롭게 표현한다. 이러한 시도에서 산미와 감칠맛을 조화시키려는 셰프의 의도와 노력을 엿볼 수 있다. 발효 식품을 일상적으로 즐기는 한국에서 발효 음식의 다양한 묘미를 표현하고 맛의 조화를 꾀하고자 하는 마테르의 여러 시도가 무척 흥미롭다.",plate
101,1209843,해남천일관,한식,02-568-7775,"서초구 반포대로 39길 36-1, Seoul, 06578, 대한민국",37.49862,127.00195,"['발렛파킹', '에어컨']",₩₩₩,"다채로운 한식 문화의 한 축을 담당하는 남도 한식. 해남천일관은 세대를 거듭해 남도 한식을 지켜왔다는 점에서 그 의미가 남다른 곳이다. 해남천일관은 해남에서 오랜 역사를 자랑하는 천일식당의 한 뿌리로, 창업자의 가족 중 하나인 이화영 대표가 운영 중이다. 일반적인 요리사들과 달리 이화영 대표가 오롯이 가족과의 일상 속에서 축적한 맛과 레시피는 해남천일관만의 자산이다. 시대 흐름에 맞춰 한식도 현대화되었지만 해남천일관은 식재료가 풍부하던 시절의 메뉴와 조리법, 식재료를 보존하기 위해 애쓰고 있다. 푸짐하게 차린 남도 한식 한 상에는 많은 요리가 올라가지만 특히 반지김치, 토하젓을 넣은 고추김치, 떡갈비에서 남도의 풍미를 물씬 느낄 수 있다. 다이닝 공간이 모두 개별 룸으로 구성되어 있어 목적에 맞게 이용이 가능하다.",plate
102,1208715,머스트루,유러피언,051-747-2369,"해운대구 좌동순환로 433번길 29, Busan, 48114, 대한민국",35.16149,129.17634,"['에어컨', '카운터 테이블']",₩₩,"부산을 대표하는 파인다이닝 중 하나인 머스트루. 부산 토박이 정재용 셰프의 공간으로, 달맞이길 골목에 비밀스레 위치해 있다. 금빛 문을 열고 들어가면 셰프가 바 테이블에서 음식 조리부터 서빙까지 모든 것을 능수능란하게 컨트롤한다. 유러피안 음식을 기반으로 하지만 당귀 씨나 참나물 소스를 이용하는 등 재료에 변화를 주어 한국 재료와의 조화를 중시하는 셰프의 진심이 늘 한결같다. 머스트루라는 이름처럼.",plate
103,1208777,소공간,한식,010-5191-9002,"해운대구 해운대해변로 298번길 47, 4층, Busan, 48099, 대한민국",35.16168,129.16738,"['에어컨', '주차장', '카운터 테이블']",₩₩,"‘작은(小) 공간’ 또는 ‘소고기를 다루는 공간’이라는 중의적인 뜻의 소공간은 한식이 기본이 되는 정성스러운 메뉴를 선보인다. 셰프는 오랜 기간 양식 요리를 하다 한식으로 전환했다. 그는 드디어 맞춤옷을 입은 듯 편한 마음으로 즐겁게 요리하고 있다고 말하는데 그 즐거운 마음이 요리에 고스란히 녹아 있다. 미려한 플레이팅과 독창적 요리. 여기에 직접 48시간 동안 끓인 곰탕과 솥밥 등 세련된 한식을 맛볼 수 있는, 결코 ‘작지 않은 공간’이다.",plate
104,1203402,구찌 오스테리아 다 마시모 보투라,이탤리언,02-795-1119,"용산구 이태원로 223, 6층, Seoul, 04349, 대한민국",37.53545,126.99856,"['발렛파킹', '에어컨', '주차장', '테라스']",₩₩₩,"피렌체의 1호점을 시작으로 LA와 도쿄에 이어 전 세계 4호점을 서울에 선보이는 구찌 오스테리아. 이탈리아 셰프 마시모 보투라와 구찌의 협업으로 탄생한 레스토랑을 이제 서울에서도 경험할 수 있게 되었다. 한국의 계절에서 영감을 얻은 서울 가든 샐러드와 24개월 숙성한 레지아노 크림이 들어가 맛이 진하고 풍부한 토르텔리니, 작은 핑크색 상자에 담겨 나오는 에밀리아 버거가 이곳의 시그니처 메뉴다. 화려한 정원을 연상시키는 구찌 특유의 초록색 인테리어, 독창적이고 고풍스러운 식기와 가구 또한 강렬한 멋과 맛을 자아낸다. 서울의 경관이 한눈에 들어오는 테라스도 운영하니 이탈리안 와인과 함께 즐겨 보기를 권한다.",plate
105,1200471,오프닝,컨템퍼러리,02-2088-5844,"강남구 도산대로 34길 22, 지하1층, Seoul, 06049, 대한민국",37.51844,127.03105,"['발렛파킹', '아주 좋은 와인 리스트', '에어컨', '주차장', '카운터 테이블']",₩₩₩,"‘미식과 와인의 경험을 통해 새로운 취향을 연다’는 뜻의 오프닝. 와인바 혹은 레스토랑이라기보다 갤러리의 느낌이 강한 이곳은 아치 문양의 입구를 비롯해 유명한 작가들의 미술 작품, 광활한 공간에 넓게 펼쳐진 500여 종 이상의 와인셀러가 시선을 압도한다. 직접 만드는 생면 파스타 디시를 비롯해 깔끔한 단품 요리를 즐길 수 있다. 다른 곳에서는 쉽게 찾을 수 없는 와인과 더불어 전체적인 분위기도 함께 즐겨 보시기를 바란다.",plate
106,1208736,피리피리,타이,010-7997-4143,"수영구 무학로 33번길 54, Busan, 48268, 대한민국",35.16379,129.11807,"['에어컨', '카운터 테이블']",₩,"광안동을 걷다가 슬쩍 보면 여기가 태국인지 부산인지 헷갈릴 정도의 실내와 외관을 갖춘 피리피리가 있다. 피리피리는 태국식 다이닝바로, 태국 음식과 이국적인 칵테일을 맛볼 수 있는 곳이다. 힙한 분위기는 물론이고 턴테이블에서 흐르는 음악과 푸짐한 정통 태국 음식이 현지를 여행하는 듯한 느낌을 준다. 엄청난 비주얼의 푸팟퐁 커리와 함께 타이 하이볼 한 잔 어떨지.",bib
107,565623,온,프렌치,02-547-0467,"강남구 도산대로 92길 42, 지하 1층, Seoul, 06070, 대한민국",37.52192,127.04938,"['발렛파킹', '에어컨']",₩₩₩,"레스토랑 '온’. 이름에 담긴 뜻처럼 따뜻하고 편안한 음식을 대접하려는 셰프의 마음을 느낄 수 있는 곳이다. 다이닝 공간은 손님들의 프라이버시를 완벽히 보장할 수 있게 설계되었고, 테이블 두세 개가 전부이기 때문에 철저히 예약제로만 운영된다. 제철 프렌치 요리의 진수를 경험하기에 안성맞춤인 곳으로, 찰 토마토와 송이 토마토를 오븐에 건조하여 당도와 산미를 최대로 끌어올린 토마토와 루비 자몽이 '온'을 대표하는 채소 요리다.",plate
108,565627,유림면,메밀국수,02-755-0659,"중구 서소문로 139-1, Seoul, 04515, 대한민국",37.566,126.9784,['카운터 테이블'],₩,"서소문동에서 50년 이상 영업을 이어온, 오랜 역사를 지니고 있는 유림면. 1980년에 지금의 자리로 이전해 3대째 운영하고 있는 가족 경영 식당이다. 이곳에선 신안의 비금도 소금과 봉평 메밀만을 이용해 면을 직접 만드는데, 미리 숙성시켜 놓은 면을 주문과 동시에 삶아 낸다. 김민경 대표는 이렇게 숙성 과정을 거친 면은 글루텐 형성이 최소화되어 식감이 훨씬 부드럽고 소화가 잘 된다고 설명한다. 메뉴 중 나물과 지단, 그리고 달콤한 양념을 올려 내는 비빔 메밀국수는 든든한 한 끼 식사로 충분하다. 또한 깔끔한 국물이 매력적인 메밀국수와 어묵을 푸짐히 담아 내는 가락국수도 이곳의 인기 메뉴다.",bib
109,548115,미진,메밀국수,02-730-6198,"종로구 종로 19, 르메이에르 종로타운 116-2호, Seoul, 03157, 대한민국",37.5708,126.97985,"['에어컨', '주차장']",₩,"1952년부터 광화문 일대를 지켜온 터줏대감인 미진은 한국식 냉메밀국수 전문점으로, 일본식 소바 쯔유보다 진한 맛의 간장 육수와 더 쫄깃한 식감의 메밀 면발을 선보인다. 식당 지하에 운영하는 공장에서 육수와 면을 직접 생산해 손님들에게 바로바로 제공한다. 한 주전자 가득 담긴 차가운 육수와 테이블마다 인심 좋게 제공하는 메밀국수 고명은 기호에 따라 가감이 가능하다. 숙주와 두부, 신김치와 돼지고기 소로 채운 메밀전병 역시 이 집의 인기 메뉴인데, 1인분의 반인 한 줄씩도 판매한다.",bib
110,1192581,야키토리 묵,야키토리,070-8835-3433,"마포구 성미산로 165-1, Seoul, 03980, 대한민국",37.56461,126.92449,"['에어컨', '카운터 테이블']",₩₩,"고즈넉한 연남동에 위치한 야키토리 전문점. 실내에 들어서면 길게 펼쳐진 카운터 테이블과 오픈형 주방, 그리고 그 중심에 있는 화로 앞에서 연신 숯불과 짚불을 이용해 구이에 집중하는 김병묵 셰프를 볼 수 있다. 화로를 비추는 밝은 조명 아래의 셰프는 마치 무대에서 독백을 하는 배우처럼 강렬한 시각적 흡입력을 보여준다. 그는, “신선한 토종닭을 매일 손질하며, 최고급 비장탄에 구워 즉시 손님에게 제공한다.”는 본질에 집중한다. 셰프가 추구하는 그 본질이야말로 야키토리 묵의 가장 큰 매력이다. 1부와 2부로 나누어 오마카세만을 제공하기 때문에 예약은 꼭 필요하다.",plate
111,511995,외고집 설렁탕,설렁탕,02-567-5225,"강남구 삼성로 555, Seoul, 06155, 대한민국",37.51097,127.05388,"['발렛파킹', '에어컨', '주차장']",₩,"2005년 장모님에게 전수받은 설렁탕 조리법을 개선하여 시작했다는 외고집 설렁탕의 현 대표는 단출하지만 정성 가득한 설렁탕 맛을 이어가고 있다. 설렁탕과 수육, 그리고 육개장에 사용하는 소고기를 직접 선별할 만큼 좋은 식재료만을 고집하는 그의 마음이 기본에 충실한 이곳 음식에 고스란히 드러난다. 편안한 한국식 밥집 분위기를 온전히 느낄 수 있는 곳이다.",plate
112,1195257,팀호완,딤섬,02-6207-3082,"강남구 봉은사로 86길 30, Seoul, 06165, 대한민국",37.5115769,127.0567982,"['발렛파킹', '에어컨']",₩,홍콩식 딤섬이 홍콩을 넘어 다양한 나라의 고객들이 즐기는 메뉴로 성장하는 데 크게 기여한 팀호완. 홍콩의 전통 딤섬 스타일을 지키면서 맛있고 합리적인 가격의 딤섬을 제공하고자 한 팀호완의 정책이 그러한 성장의 가장 큰 원동력이었다. 서울에 진출한 팀호완 역시 그 정책을 반영하듯 본연의 모습에 충실하다. 팀호완의 서울 본점인 삼성점은 110명의 고객을 모실 수 있는 넓은 규모와 넉넉한 주차 공간을 제공한다. 다양한 스타일의 홍콩식 딤섬을 즐기기에 더없이 좋은 레스토랑이다.,bib
113,511960,진진,중식,070-5035-8878,"마포구 월드컵북로 1길 60, Seoul, 04031, 대한민국",37.55777,126.91324,['에어컨'],₩₩,nan,bib
114,570669,쥬에,중식,02-798-9700,"용산구 독서당로 124-7, Seoul, 04420, 대한민국",37.53744,127.01277,"['발렛파킹', '휠체어 가능']",₩₩₩₩,"‘쥬에’는 중국 귀족에게 부여하던 작위를 뜻하는 말을 중국식으로 발음한 것이다. 정통 광둥식 요리를 선보이는 ‘쥬에’는 코스 메뉴 역시 ‘공작’, ‘후작’, ‘백작’, ‘자작’, ‘남작’처럼 작위의 이름을 따서 구성했다. 이곳의 대표 메뉴인 돼지 바비큐는 특제 양념에 잰 통고기를 고온에서 구워 껍질의 바삭함과 촉촉한 살코기의 풍부한 육즙을 동시에 느낄 수 있다. 또한 13가지가 넘는 딤섬 중 하나인 라창펀과 전복을 올린 시우마이, 그리고 춘권은 꼭 맛봐야 할 메뉴다. 각종 요리에 곁들일 수 있는 중국 차도 준비되어 있다.",plate
115,1195100,멘텐,라멘,,"중구 삼일대로 305, Seoul, 04537, 대한민국",37.5619506,126.9885683,"['에어컨', '카운터 테이블']",₩,"명동역 인근 골목 초입에 위치한 1인 셰프 라멘 레스토랑 ‘멘텐’. 이곳은 쇼유 라멘과 탄탄멘 단 두 종류만을 만들어낸다. 혼자 모든 공정을 감당해야 하기에 셰프는 메뉴의 가짓수를 줄이는 대신 품질에 더 많은 노력을 쏟는다. 두 라멘 모두 청탕 수프를 사용하여 맑은 맛과 자극적인 맛을 비교적 균형 있게 잡았다. 재료 하나하나의 익힘과 조리 상태가 상당히 정교하고, 특히 소유 라멘 수프의 깊은 풍미와 감칠맛이 일품이다. “복잡하지 않고 심플하지만 완성도는 높게”라는 셰프의 표현과 잘 어울리는 라멘이다. ",bib
116,1192590,텐지몽,일식,02-542-3010,"강남구 학동로 97길 41, 4층, Seoul, 06072, 대한민국",37.52237,127.05429,"['발렛파킹', '에어컨', '카운터 테이블']",₩₩,"‘톡톡’의 김대천 셰프와 일본 ‘덴’의 하세가와 셰프의 협업으로 탄생한 텐지몽. 한자로 ‘천지문’을 뜻하는 텐지몽은 ‘하늘과 땅의 재료로 미식 세계의 문을 연다’는 의미를 담고 있다. 협업 체계인 까닭에 일본에서 메뉴 감수를 받지만 오마카세는 한국의 신선한 재료를 이용해 만든다. 특히, 시그니처 메뉴인 솥밥은 부지깽이, 취나물 같은 한국의 제철 재료를 넣어 독특한 풍미를 더했다. 좌석이 많지 않아 개성있는 요리를 맛보려면 예약은 필수다. ",plate
117,565631,테판,테판야키,02-799-8272,"용산구 소월로 322, 그랜드 하얏트 호텔 지하 1층, Seoul, 04347, 대한민국",37.53929,126.9971,"['발렛파킹', '에어컨', '전망이 좋은', '주차장', '카운터 테이블', '휠체어 가능']",₩₩₩,"전 세계 철판 요리를 경험할 수 있는 테판은 애피타이저부터 디저트까지 모든 음식을 철판 위에서 조리하는 신개념의 레스토랑이다. 이곳에선 바 테이블에 앉아 요리가 완성되는 과정을 직접 볼 수 있고, 널찍한 통창을 통해 남산의 아름다운 풍경도 감상할 수 있다. 신선한 해산물과 스테이크, 그리고 화려한 불 쇼와 함께 완성하는 플랑베 등 맛있는 요리뿐만 아니라 즐거운 볼거리까지 선사하는 테판은 그랜드 하얏트 서울의 미식 거리 콘셉트의 ‘332 소월로’에 자리하고 있다.",plate
118,1192576,숙수도가,바비큐,010-8231-2627,"성북구 동소문로 17길 28, Seoul, 02830, 대한민국",37.5935,127.01539,['에어컨'],₩₩,"성신여대 인근의 숙수도가는 김새결 셰프의 연구와 노력이 결실을 맺은 한우 바비큐 레스토랑이다. 숙수도가 바비큐의 목표은 간결하다, “최고의 한우로 최고의 숙성육을 만든다”. 이를 위해 720시간 동안 숙수도가 만의 매뉴얼로 고기를 온도, 습도, 산소 접촉의 변화에 노출시키고, 건조와 발효를 통해 한우의 감칠맛을 극대화시키는데 집중한다. 이렇게 다듬어진 숙성육은 김새결 셰프의 방식으로 고객의 테이블에서 구워지고, 특유의 풍미를 전한다. 한우 부위에 따른 3가지 코스가 준비되어 있으며, 숙성육의 매력을 전하기 위해 문턱을 낮춘 합리적인 가격 역시 매력적인 요소이다.",plate
119,565636,합정옥,곰탕,02-322-4822,"마포구 양화로 1길 21, 2층, Seoul, 04026, 대한민국",37.54944,126.91037,[],₩,"합정옥의 시작은 시아버지께서 손수 끓여 드시던 곰탕과 수육 맛에서 비롯됐다. 시아버지가 훗날 대표가 된 며느리에게 ""곰탕집 한번 차려볼까?""라고 말한 것이 계기가 되어 오늘에까지 이르게 된 것. 진한 국물과 은은한 육 향, 토렴해 내오는 달달한 밥과 야들야들한 소고기, 그리고 내포까지, 이곳 음식은 푸짐함을 미덕으로 삼고 있다. 또한 구수한 된장국에 달큰한 배추속대를 넣어 끓인 속댓국의 시원한 맛도 일품이다. 하루에 탕 100인분 정도만 준비하며, 재료 소진 시엔 영업을 종료한다.",bib
120,1192583,에빠뉘,프렌치,02-548-2020,"강남구 선릉로 146길 33, 3층, Seoul, 06064, 대한민국",37.566,126.9784,"['발렛파킹', '에어컨', '주차장']",₩₩₩,"프랑스어로 ‘만개하다’, ‘꽃이 피어오르다’를 뜻하는 ‘에빠뉘’. 청담동 뒷골목에 위치한 이곳은 3개월 주기로 새로운 작가들의 작품을 벽에 전시한다. 그 덕분에 마치 갤러리 같은 느낌의 공간에서 섬세하고 아름다운 맛의 프렌치 요리를 경험할 수 있다. 특히, 부드러운 샴페인 바닐라 소스와의 조합이 인상적인 랍스터와 라비올리, 바삭한 크런치에 둘러싸인 푸아그라 마브레는 이곳의 대표 메뉴. 플레이팅도 그림을 보는 것같이 섬세하고 인상적이다. 조화로운 맛과 플레이팅을 중요시한다는 권지훈 셰프가 세심하게 준비한 음식이 눈과 입을 만족시킬 것이다.  ",plate
121,1192572,베이스 이즈 나이스,베지테리안,0507-1306-6724,"마포구 도화 2길 20, Seoul, 04171, 대한민국",37.566,126.9784,['에어컨'],₩,"채소 친화적 레스토랑인 베이스 이즈 나이스. 이곳의 주인장인 장진아 대표는 레스토랑 컨설턴트와 푸드스타일리스트, 식음 기획자로 꽤 긴 시간을 해외에서 활동하였다. 이곳의 내추럴한 분위기와 채소를 중심으로 풀어낸 균형 잡힌 요리에는 그녀의 이런 경험이 오롯이 담겨 있다. 채소를 이용한 덮밥 스타일의 메뉴와 정갈하게 차려낸 국과 반찬은 깔끔하면서도 맛이 일품이다. 주인장의 표현처럼 이곳은 채식에 대한 의식적 접근이 아닌 자연스러운 채소 식생활과 일상 속의 미식을 경험할 수 있는 메뉴를 지향한다. 1인 운영 레스토랑이라 예약 손님만 받고 있으니 방문 전 예약은 필수다.",bib
122,548125,스테이,프렌치,02-3213-1231,"송파구 올림픽로 300, 롯데월드 타워 81층, Seoul, 05551, 대한민국",37.51271,127.10258,"['발렛파킹', '아주 좋은 와인 리스트', '에어컨', '전망이 좋은', '주차장', '휠체어 가능']",₩₩₩₩,"옐로와 골드 컬러로 포인트를 준 경쾌하고 모던한 인테리어, 전 좌석에서 감상할 수 있는 서울의 화려한 스카이라인. 시그니엘 81층에 위치한 STAY는 프렌치 파인 다이닝의 진수를 보여주는 세계적인 명성의 셰프, 야닉 알레노의 모던 프렌치 레스토랑이다. 이곳에선 수준 높은 요리를 편안한 분위기에서 즐길 수 있는데, 매주 새로운 요리를 하나씩 소개하며 계절마다 새로운 메뉴를 선보인다. 또한 레스토랑 중앙에 자리한 페이스트리 라이브러리에선 프렌치 요리의 피날레를 장식하는 디저트를 다양하게 즐길 수 있다.",plate
123,565621,스시 마이,스시,02-6925-3126,"강남구 언주로 168길 6, 2층, Seoul, 06020, 대한민국",37.52634,127.0339,"['발렛파킹', '에어컨', '카운터 테이블', '휠체어 가능']",₩₩₩₩,"깔끔한 블랙 톤의 인테리어에 6석의 카운터가 전부인 아담한 스시 마이. 카운터 뒤의 디지털 스크린과 홀에 울려 퍼지는 신나는 음악이 강렬하면서도 모던한 인상을 안겨준다. 신라호텔 아리아케 출신의 유오균 셰프는 계절성이 높은 다양한 식재료와 식감의 변주를 통해 손님들의 오감을 만족시키기 위해 노력한다. 특히 강원도에서 공수한 성대, 솔치, 장치 등 익숙지 않은 생선들을 자주 이용하는 것이 특징이다. 또한 적초로 간을 한 샤리가 생선 본연의 맛을 더욱 잘 이끌어낸다. 장소가 협소하기 때문에 예약은 필수다.",plate
124,511942,곰바위,바비큐,02-511-0068,"강남구 영동대로 115길 10, Seoul, 06087, 대한민국",37.51485,127.05885,['발렛파킹'],₩₩,"1983년, 삼성동 봉은사 인근에 소규모로 시작한 곰바위는 질 좋은 한우의 양과 대창구이를 전문으로 하는 곳이다. 현재는 본관 뒤편에 3층 규모의 신관이 자리하고 있어 레스토랑의 과거와 현재 모습을 한눈에 알 수 있다. 고소한 풍미와 쫄깃한 식감이 별미인 특양구이와 대창구이 외에도 꽃등심, 갈비, 차돌박이 등 다양한 부위의 한우를 함께 맛볼 수 있다. 수작업으로 정성스레 손질한 양과 대창은 참숯에 구워 깊은 풍미를 지니고 있다. 내부는 늘 분주하지만 깔끔하고 기능적인 것이 특징이다.",plate
125,570658,본 앤 브레드,바비큐,02-2294-5005,"성동구 마장로 42길 1, 2층, Seoul, 04757, 대한민국",37.56697,127.04468,"['발렛파킹', '에어컨', '주차장']",₩₩₩,"자타 공인 최상급 한우를 즐길 수 있는 ‘본 앤 브레드’는 정상원 대표의 남다른 한우 사랑에서 시작됐다. 한우 전문 유통업체를 운영하는 아버지 밑에서 쌓은 경험과 본인의 미식 취미가 합쳐져 탄생한 이곳은 다양한 콘셉트의 한우 다이닝을 제공하는 독특한 공간이다. 2층 캐주얼 레스토랑은 '마장동'하면 떠오르는 정육식당에서 콘셉트를 따왔지만, 현대적 인테리어와 고급 메뉴로 기존의 식당들과 차별화를 뒀다. 1층의 정육점 라운지를 비롯해 3층에는 코스 요리 전문 공간도 준비되어 있고, 지하에서는 본 앤 브레드의 정체성을 제대로 경험할 수 있는 한우 맡김 코스도 제공한다.",plate
126,566825,더 그린테이블,프렌치,02-591-2672,"종로구 율곡로 83, 아라리오 스페이스 4층, Seoul, 03058, 대한민국",37.57781,126.98829,"['에어컨', '전망이 좋은', '주차장']",₩₩₩,nan,plate
127,565625,오레노 라멘,라멘,02-322-3539,"마포구 독막로 6길 14, Seoul, 04072, 대한민국",37.54744,126.91729,"['에어컨', '카운터 테이블']",₩,"국내에서 외국 음식의 대중화는 곧 현지화의 성공을 의미한다. 진입 장벽이 낮은 대중음식의 경우 더욱더 그러하다. 신동우 셰프는 오랜 시간에 걸쳐 축적한 라멘 비즈니스 노하우로 정통성과 대중성이라는 두 마리 토끼를 모두 잡았다. 진한 닭 육수가 매력적인 토리파이탄과 깔끔하면서도 깊은 맛을 자랑하는 쇼유 라멘에서 그가 추구하는 색깔이 뚜렷이 드러난다. 신 셰프는 라멘의 생명인 육수와 면을 매일매일 만들어내며 끊임없는 테스팅으로 품질 유지에 심혈을 기울인다. ""스스로에게 떳떳한 라멘을 만들고 싶다""는 그의 말에서 자부심이 엿보인다.",bib
128,511864,크리스탈 제이드,중식,02-3789-8088,"중구 남대문로 7길 16, 지하 1층, Seoul, 04533, 대한민국",37.564311,126.981212,"['에어컨', '주차장']",₩₩,"아시아와 미국 등지에 다수의 지점을 운영하고 있는 크리스탈 제이드는 싱가포르에서 광둥식 요리를 전문으로 선보이는 중국식 체인 레스토랑이다. 레스토랑, 딤섬 전문점, 익스프레스점 등 현재 우리나라에만 10여 곳의 매장을 운영하고 있다. 상하이식 요리와 광둥식 요리, 홍콩식 딤섬 등 다양한 지역의 음식을 제공하는 이곳의 대표 메뉴로는 XO 소스에 조리한 새우 관자 요리와 짜장 소스 치킨 요리 등을 꼽을 수 있다. 이곳에선 모던 하면서도 중국의 정취를 느낄 수 있는 쾌적한 다이닝 공간에서 식사를 즐길 수 있다.",plate
129,511963,줄라이,컨템퍼러리,02-534-9544,"서초구 동광로 164, Seoul, 06589, 대한민국",37.49475,127.00008,['발렛파킹'],₩₩₩,"고즈넉한 서래마을에서 오랜 시간 동안 우직하고 충실한 음식을 만들어온 줄라이. 정통 프렌치 요리에 기반을 두고 있지만, 국내 식재료를 최대한 활용해 셰프의 개성대로 전통을 재해석한 노력이 돋보인다. 한국 고유의 발효 식품인 간장과 된장 등을 요리에 이용하는 것이 그러한 예다. 이곳에선 화려하진 않지만 재료 본연의 맛이 살아 있는 정직한 음식을 선보이며, 작지만 아늑한 다이닝 홀은 특별한 식사 분위기를 제공한다",plate
130,548071,꼼 모아,프렌치,02-6217-5252,"용산구 신흥로 56, Seoul, 04339, 대한민국",37.54344,126.9877,['에어컨'],₩₩,"해방촌 끝자락의 가파른 언덕을 지나면 밝은 버건디 컬러 외관의 꼼 모아가 눈에 들어온다. 소담한 공간에서 프랑스 현지의 맛과 분위기를 만끽할 수 있는 이곳은 김모아 셰프의 레스토랑으로, 정감 있는 서비스가 돋보이는 곳이다. 단순한 재료로 맛있는 음식을 대접하고 싶다는 것이 그녀의 바람. 이곳의 베스트셀러는 푸아그라 크렘 브륄레와 파테 앙 크루트. 하루 전에 예약해야만 맛볼 수 있는 비프 웰링턴과 셰프의 특선 디저트 수플레는 꼭 한번 맛보길 바란다.",plate
131,548120,봉밀가,냉면,02-546-2305,"강남구 선릉로 664, Seoul, 06088, 대한민국",37.51598,127.0424,['에어컨'],₩,"2007년부터 레스토랑 운영을 해온 권희승 셰프는 본인이 가장 즐겨 먹는 메밀 면에 대한 열정으로 지금의 봉밀가를 오픈했다. 기라성같이 훌륭한 냉면집들에 '시간과 정성이 들어간 요리'로 도전하고 싶다는 권 셰프는 그 누구보다 재료 준비에 많은 시간을 투자한다. 한우 양지머리, 설깃살, 한약재 등을 이용하여 5시간 동안 끓여낸 순수한 육수만을 사용하고 타 냉면집보다 굵은 면발을 만들어 낸다. ‘냉면’ 대신 ‘평양 메밀 물국수’라는 이름을 사용하는 것도 봉밀가만의 특징이다. ",plate
132,565617,봉산옥,만두,02-525-2282,"서초구 반포대로 8길 5-6, Seoul, 06716, 대한민국",37.48336,127.01242,['에어컨'],₩,"서민들의 일상에 깊숙이 자리매김한 한국의 대표적인 대중음식 중의 하나가 바로 만둣국이다. 이곳의 윤영숙 대표는 황해도 사리원 출신의 시어머니를 통해 자연스럽게 황해도식 만둣국을 접하게 되었으며, 오랜 경험을 통해 터득한 깊은 맛을 고객들에게 전하고 있다. 그녀는 삼삼하고 깔끔한 맛의 만두소를 만들기 위해 오랫동안 시어머니의 비법을 고수하고 있다. 무엇보다 '고향의 맛 혹은 어린 시절 할머니가 만들어주셨던 만둣국 맛'이라는 평을 들을 때 뿌듯함을 느낀다는 윤 대표의 말에서 자부심이 느껴진다.",bib
133,548109,마포 양지 설렁탕,설렁탕,02-716-8616,"마포구 새창로 6, Seoul, 04168, 대한민국",37.54193,126.9505,"['발렛파킹', '주차장']",₩,"1974년에 문을 연 마포구의 터줏대감 ‘마포 양지 설렁탕’이 더 쾌적하고 넓은 2층 공간으로 새 단장을 마쳤다. 내부는 바뀌었지만 이곳 특유의 맑고 깔끔한 설렁탕 맛은 한결같다. 잡내 없이 맑은 국물에 푹 끓인 사골의 고소함, 그리고 양지머리의 달달함이 잘 어우러진다. 뜨끈한 국물에 밥 한 공기를 말아 달큼한 파김치를 얹어 먹으면 든든한 한 끼가 완성된다.",plate
134,511847,보름쇠,바비큐,02-569-9967,"강남구 테헤란로 81길 36, Seoul, 06167, 대한민국",37.509328,127.056611,"['발렛파킹', '에어컨']",₩₩,"2015년 10월에 오픈한 보름쇠는 서울에선 그리 알려지지 않은 제주산 흑우를 제공하는 소고기 전문점이다. 이곳에서 운영하는 제주 농장에서 고기를 직접 공수하는데 등심과 안심, 안창살, 살치살, 생육회, 양지머리 등 취향에 따라 다양한 부위를 즐길 수 있다. 제주 농장에서 항공편으로 직배송하는 흑우인 까닭에 품질에 대한 자부심과 신뢰도가 남다르다. 한편, 식사 공간은 1층의 현대적인 다이닝 홀과 2층의 12개 개별 룸으로 구성되어 있다.",plate
135,548157,텅 앤 그루브 조인트,바비큐,02-790-7036,"용산구 보광로 60길 7, Seoul, 04406, 대한민국",37.53404,126.99451,[],₩₩,"21세기 감성이 잘 녹아 있어 고깃집이라기보다는 펍이나 카페를 연상시키는 텅 앤 그루브 조인트는 숙성시킨 소고기와 양고기, 돼지고기 바비큐를 전문으로 하는 레스토랑이다. 최소 21일간 숙성시킨 소고기와 12개월 미만의 부드러운 양갈비, 그리고 소 한 마리에서 2~4kg밖에 나오지 않는 꽃새우살이 이 집의 대표 메뉴다. 여기에 직접 만든 고추기름과 고수 페스토를 함께 내는 것이 특징이다. 참신한 점심 메뉴 역시 인상적이며, 다양한 종류의 크래프트 맥주와 와인도 마련되어 있다.",plate
136,1199643,셰누 프라이빗 키친,프렌치,070-8624-8907,"용산구 녹사평대로 210-6, 3층, Seoul, 04345, 대한민국",37.53634,126.98734,"['에어컨', '카운터 테이블']",₩₩,"프랑스어로 ‘우리집’을 뜻하는 셰누. 부부가 운영하는 공간으로, 따뜻한 음식이 차려진 집 같은 공간에서 맛있는 시간을 보내길 바라는 의미가 담겨 있다. 프랑스인 셰프와 한국인 아내가 준비하는 프랑스 가정식이 대표 메뉴이지만 프랑스 유수의 스타 레스토랑과 호텔의 이그제큐티브 셰프를 역임한 마티유 셰프가 준비하는 음식은 가정식의 수준을 훨씬 뛰어넘는다. 신선한 가리비를 넣은 카르파치오 요리나 트러플 에멀젼을 사용한 비프 타르타르, 부르기뇽, 무슬린 소스를 넣은 화이트 아스파라거스 등 기본에 충실한 정통 프랑스 요리를 맛볼 수 있다. 저녁에만 운영하니 예약은 필수이다. 집처럼 따뜻한 공간에서 프랑스를 느껴보는 것은 어떨까?",plate
137,548110,마포옥,설렁탕,02-716-6661,"마포구 토정로 312, Seoul, 04165, 대한민국",37.53983,126.94332,[],₩,"고기와 국물을 선호하는 한국인에게 설렁탕만 한 음식이 또 있을까? 서울 설렁탕 중에서도 마포식 설렁탕은 국물이 뽀얗지 않고 맑은 편이다. 1949년에 개업한 마포옥은 양지와 차돌박이, 사골로 곤 진한 국물에 두툼하게 썬 양지머리를 푸짐하게 올려 제공한다. 국물에 밥을 토렴해 내는 것도 이 집의 특징인데, 무엇보다 소고기 국물의 고소한 감칠맛과 달달한 밥의 조화가 일품이다. 여기에 배추 겉절이, 파김치, 깍두기 등 다양한 김치를 제공한다. 이 외에도 차돌 수육을 넉넉하게 얹어주는 차돌탕도 추천한다.",bib
138,565616,무오키,컨템퍼러리,010-2948-4171,"강남구 학동로 55길 12-12, 2층, Seoul, 06065, 대한민국",37.51896,127.04222,"['발렛파킹', '에어컨', '카운터 테이블']",₩₩₩,"남아프리카 공화국 방언으로 ‘참나무’를 뜻하는 ‘무오키’는 박무현 셰프의 우직한 성격을 그대로 반영한 곳이다. 세계 다양한 지역에서 요리 경험을 쌓은 박 셰프는 본인만의 스타일을 녹여낸 음식을 제공하고자 이곳을 오픈했다. 새로운 조리법으로 뻔하지 않은 맛과 질감의 조화를 표현해내는 것을 즐기는 그의 메뉴엔 재료에 대한 깊은 이해 없인 만들 수 없는 재미있는 요리들이 포함되어 있다. 7가지 방법으로 조리한 토마토, 5가지 방식으로 만든 당근 디저트, 그리고 제주식 갈치 호박국을 자신만의 방식으로 재해석한 요리 등이 그러한 예다. 그의 요리 세계가 궁금하다면 예약 후 들러볼 것.",1 star
139,548161,황금콩밭,두부,02-313-2952,"마포구 마포대로 16길 9, Seoul, 04205, 대한민국",37.5509,126.9567,"['에어컨', '주차장']",₩,"100% 국내산 콩과 소금으로 매일 새벽 당일 판매할 두부를 만드는 두부 전문점. 황금콩밭의 두부는 진한 두유와 소량의 간수를 사용해 콩 특유의 고소하면서도 달달한 맛과 우유처럼 부드러운 식감을 자랑한다. 출판사를 운영하는 작가 출신의 윤태현 대표는 본인이 즐기는 건강한 음식을 주변 사람들과 나누고픈 마음에 손수 담근 청국장과 쌀과 누룩, 물 이외에는 아무것도 넣지 않은 전통 탁주도 함께 판매한다. 두부 전문점이지만 제주 무항생제 돼지고기 보쌈과 자연산 우럭찜도 이곳의 별미다.",bib
140,512043,유 유안,중식,02-6388-5500,"종로구 새문안로 97, 포시즌스 호텔 11층, Seoul, 03183, 대한민국",37.57049,126.97545,"['발렛파킹', '아주 좋은 와인 리스트', '에어컨', '주차장', '휠체어 가능']",₩₩₩₩,"모던 중국 패션의 절정을 찍었던 1920년대 상하이. 그 화려함을 모티브 삼아 디자인한 중식 전문점 유 유안은 비취색과 금색, 대리석의 은은하고 고급스러운 조화가 매력적인 곳이다. 입구를 지나면서 눈에 들어오는 오리 숙성고는 유 유안이 추구하는 요리의 콘셉트를 잘 보여준다. 광둥식 요리를 앞세우고 있지만, 중국 내 다른 지역의 특색 있는 음식도 함께 선보인다. 이곳의 인기 메뉴는 베이징 덕으로, 반 마리도 주문 가능하다. 주말 브런치도 인기를 끌고 있는데, 유 유안의 수준 높은 딤섬 요리를 맛볼 수 있다.",plate
141,565607,교양식사,바비큐,010-7601-4041,"용산구 이태원로 238, Seoul, 04400, 대한민국",37.53592,126.99994,"['발렛파킹', '카운터 테이블']",₩,"상호에서부터 궁금증을 유발하는 이곳은 이태원에 자리하고 있는 삿포로식 양갈비 전문점이다. 호주에서 10개월 미만의 양고기를 공수받아 어린 양 특유의 고소한 풍미와 부드러운 식감이 살아 있다. 기름기가 적고 고소한 프렌치 랙, 쫄깃한 갈빗살, 그리고 부드러운 알등심의 세 가지 부위를 맛볼 수 있다. 닭 육수를 베이스로 다양한 채소를 구워 곁들인 수프 카레와 향긋한 마늘밥 또한 꼭 먹어봐야 하는 메뉴다. 세련된 인테리어가 돋보이는 이곳은 다이닝 룸을 제외하면 10석 남짓의 바 좌석밖에 없기 때문에 예약은 필수다.",bib
142,511993,남포면옥,냉면,02-777-3131,"중구 을지로 3길 24, Seoul, 04522, 대한민국",37.567269,126.981609,[],₩,"남포면옥은 사람들의 발길이 끊기지 않는 오피스 빌딩 밀집 지역의 활기 넘치는 좁은 골목에 위치한 이북식 냉면집이다. 평양식 냉면, 어복쟁반, 전 요리를 전문으로 하는 남포면옥은 남녀노소를 불문하고 오랜 세월에 걸쳐 대중적인 사랑을 받아왔다. 늘 손님들로 분주한 분위기 속에서도 군더더기 없는 서비스와 한결같이 밝은 종업원들의 응대가 매력적인 남포면옥은 테이블식 좌석과 방석식 테이블의 룸으로 구성되어 있다.",bib
143,548091,랑빠스 81,프렌치,070-7779-8181,"마포구 동교로 30길 17-1, Seoul, 03985, 대한민국",37.56018,126.92521,"['에어컨', '카운터 테이블']",₩₩,"연남동의 한적한 골목길에 위치한 랑빠스 81은 2015년에 오픈한 프렌치 다이닝 바다. 프랑스어로 ‘막다른 골목’을 의미하는 이 레스토랑은 한국인에게는 다소 생소할 수 있는 샤르퀴트리를 직접 만들어 합리적인 가격에 제공한다. 샤르퀴트리는 프랑스인들이 즐겨 먹는 육가공 제품을 일컫는 말로, 다양한 종류의 햄과 소시지를 포함한다. 염장해 건조시켜야 하는 일부 제품은 6개월에서 1년 정도 숙성시키는데, 특유의 진한 감칠맛을 자랑한다. 한편, 제주도에서 직접 공수한 빈티지 가구가 레스토랑에 멋스러움을 더해준다.",plate
144,570673,피에르 가니에르,프렌치,02-317-7181,"중구 을지로 30, 롯데호텔 35층, Seoul, 04533, 대한민국",37.56529,126.98103,"['발렛파킹', '에어컨', '전망이 좋은', '주차장', '휠체어 가능']",₩₩₩₩,소공동 롯데 호텔 신관 최상층에 위치한 이곳은 프랑스 파리 출신의 세계적인 셰프 피에르 가니에르가 2008년 오픈한 프렌치 파인 다이닝 레스토랑이다. 고급 인테리어와 우아한 다이닝 공간을 자랑하는 이곳은 피에르 가니에르 셰프의 팀이 한국의 식재료를 바탕으로 만들어 내는 모던한 프랑스 요리를 선보이고 있다. 250여 종 이상의 고급 와인이 준비되어 있는 유리 와인 저장고와 모든 룸에서 내려다보이는 멋진 도심 경관은 시각적 즐거움도 충족시켜 준다. 정중하고 전문적인 서비스도 매력적이다.,plate
145,512022,스시조,일식,02-317-0373,"중구 소공로 106, 웨스틴 조선 호텔 20층, Seoul, 04533, 대한민국",37.56441,126.9797,"['발렛파킹', '에어컨', '좋은 사케 리스트', '주차장', '카운터 테이블', '휠체어 가능']",₩₩₩₩,"오랜 세월 동안 많은 스시 애호가들의 사랑을 받아온 스시조. 국내의 손꼽히는 스시 전문점 중 하나로 일본 정통 스시의 맛과 기술을 표방한다. 웨스틴조선 호텔 20층에 자리한 깔끔하고 우아한 분위기의 스시조에선 손님들에게 내는 훌륭한 음식에 걸맞은 정중한 서비스는 물론, 일식 요리와 함께 즐길 수 있는 사케도 종류별로 잘 갖춰져 있다. 서울 도심 경관이 한눈에 내려다보이는 다이닝 홀도 매력적이지만, 오붓하게 식사를 즐길 수 있는 프라이빗 룸도 그에 못지않다.",plate
146,511982,만족오향족발,족발,02-753-4755,"중구 서소문로 134-7, Seoul, 04514, 대한민국",37.56324,126.97598,[],₩,"예로부터 한국인들의 대중적인 사랑을 받아온 족발을 ‘최고의 맛으로 제공하자’는 일념하에 달려온 만족오향족발은 철저한 위생 관리는 물론, 중앙 공급 시스템과 통합 물류 시스템을 체계적으로 운영해 전 매장에서 균등한 품질의 족발을 제공한다. 국내 최초로 온족을 개발한 이곳은 묵묵히 한길을 걸어온 전문점답게 품질 만족도가 높은 편이다. 현재 세 곳의 직영점을 운영하고 있다.",bib
147,511961,진미식당,게장,02-3211-4468,"마포구 마포대로 186-6, Seoul, 04207, 대한민국",37.55055,126.95577,"['신발을 벗고 올라오세요', '에어컨']",₩₩,"간장게장 한 가지만을 자신 있게 선보이는 게장 전문점으로, 이곳에선 최상급의 서해안 꽃게만을 사용한다. 진미식당이 오랫동안 꾸준한 사랑을 받을 수 있었던 비법은 바로 재료의 품질과 변함없는 맛에 대한 고집이다. 그간 정치인과 연예인을 비롯해 이곳을 다녀간 수많은 유명 인사들의 자취와 세월의 흔적이 소박한 식당 곳곳에 남아 있다. 이곳은 당일 판매할 양만큼만 그때그때 준비하기 때문에 혹여 늦은 시간에 가면 동날 수도 있으니 가급적이면 예약 후 방문하기를 권한다.",plate
148,511867,대성집,도가니탕,02-735-4259,"종로구 사직로 5, Seoul, 03029, 대한민국",37.57269,126.96091,['주차장'],₩,"뽀얗고 맑은 국물에 고기가 붙은 도가니와 쫄깃한 힘줄이 풍성하게 들어 있는 대성집은 해장국집으로 시작해 현재 도가니탕 전문점이 되었다. 진한 국물 속에 가득 담겨있는 도가니에서 소박한 여유와 정감을 느낄 수 있다. 김치와 함께 밥을 가득 말아 특제 간장 소스에 찍어 먹으면 훌륭한 한 끼 식사가 된다. 국내산 식재료만을 고집했지만, 수량이 모자라 현재는 미국산을 조금 섞어 사용한다. 늘 문전성시를 이루며, 선택에 따라 포장도 가능하다.",bib
149,511876,개성만두 궁,만두,02-733-9240,"종로구 인사동 10길 11-3, Seoul, 03146, 대한민국",37.57423,126.98539,[],₩,"1970년, 개성 출신의 할머니가 시작해 3대째 계승되어온 개성만두 궁은 딸의 손을 거쳐 현재는 손녀가 운영하고 있다. 개성 만두의 특징은 무엇보다 크고 꽉 찬 속인데, 이곳의 만두소는 배추와 숙주나물을 넉넉히 넣어 담백하고 삼삼한 맛이 일품이다. 만둣국과 떡국엔 양지를 고아 만든 육수를 사용하며, 만두소는 매일 신선한 재료로 정성스레 버무린다. 단아한 한옥에서 건강한 음식의 맛을 즐길 수 있다.",bib
150,512032,도림,중식,02-317-7101,"중구 을지로 30, 롯데호텔 37층, Seoul, 04533, 대한민국",37.566,126.9784,"['발렛파킹', '에어컨', '전망이 좋은', '주차장', '휠체어 가능']",₩₩₩₩,"롯데호텔 37층에 자리한 차이니즈 레스토랑 도림은 중식 고급화의 첨단을 보여주는 곳으로, 식재료 본연의 맛을 잘 표현해내기로 유명하다. 광둥식 요리를 비롯해 다양한 중식을 소개하고 있으며, 이곳의 음식은 정통의 맛과 멋을 존중하며, 창의성까지 겸비한 훌륭한 중식으로 평가받는다. 요리의 품격은 고급스러움과 현대적인 감각이 녹아 있는 인테리어로 인해 한층 더 격상된다. 이곳엔 다양한 규모의 별실이 마련되어있어 돌잔치, 비즈니스 및 가족 식사 등 각종 모임 장소로도 각광받고 있다.",plate
151,511991,무궁화,한식,02-317-7061,"중구 을지로 30, 롯데호텔 38층, Seoul, 04533, 대한민국",37.56533,126.981,"['발렛파킹', '에어컨', '전망이 좋은', '좋은 사케 리스트', '주차장', '휠체어 가능']",₩₩₩₩,소공동 롯데 호텔 38층에 위치한 파인 다이닝 레스토랑 무궁화. 동양의 멋과 현대적 감성이 공존하는 공간으로 모던한 한식을 만나볼 수 있다. 제철 식재료의 맛과 효능에 대해 끊임없이 연구하는 이곳은 약과 음식은 근원이 같다는 ‘약식동원’ 사상에 기반을 둔 건강식을 선보인다. 계절에 따라 변화하는 무궁화의 깊이 있는 요리는 정통 한식의 맛과 멋을 느끼기에 충분하다. 38층에서 내려다보는 서울의 도심 전망 또한 근사하다.,plate
152,512021,스바루,소바,02-596-4882,"서초구 방배중앙로 21길 7, Seoul, 06560, 대한민국",37.49234,126.98611,"['에어컨', '주차장']",₩,"“소바의 본고장과 다름없는 맛을 구현하여 고객에게 최고의 소바를 제공하겠다.”는 철학으로 끊임없는 연구와 개발을 지속해온 강영철 셰프. 오랜 일본 생활에서 경험한 소바의 순수한 맛에 매료되어 지금까지 소바를 위한 한길을 걷고 있다. 강영철 셰프는 별도의 제면실을 두고 전통 방식으로 그날그날 소바 면을 뽑는데, 밀과 메밀의 비율을 2:8로 맞춘 니하치 스타일의 소바를 고수한다. 소바의 순수한 맛이 강점인 자루 소바를 비롯해 깊은 감칠맛의 오리 메밀과 들기름 메밀이 스바루에서 가장 인기 있는 대표 메뉴이다.",bib
153,511969,코지마,스시,02-2056-1291,"강남구 압구정로 60길 21, 분더샵 6층, Seoul, 06016, 대한민국",37.52559,127.04193,"['발렛파킹', '에어컨', '좋은 사케 리스트', '주차장', '카운터 테이블']",₩₩₩₩,최상급 자연산 재료를 숙성시킨 부드러운 네타와 단단한 샤리의 절묘한 조화를 우아한 공간에서 즐길 수 있는 곳. 최근 새로 합류한 김우태 셰프는 재료에 대한 친절한 설명을 곁들이며 손님과 교감하는 스타일이다. 셰프가 바뀌면서 전과는 조금 다른 맛을 선보이고 있지만 최고의 재료를 선별해 재료 본연의 맛을 전달한다는 철학에는 변함이 없다. 다양한 츠마미와 함께 김우태 셰프의 오마카세를 더욱 맛있게 즐겨 보시기 바란다.,2 star
154,511844,비채나,"한식, 계절 요리",02-3213-1261,"송파구 올림픽로 300, 롯데월드 타워 81층, Seoul, 05551, 대한민국",37.5126,127.10253,"['발렛파킹', '에어컨', '전망이 좋은', '주차장', '휠체어 가능']",₩₩₩₩,단아한 한식 다이닝을 선보이는 비채나. 이곳의 차별화된 맛은 시간과 정성이 깃든 장과 김치 등 가장 기본적인 것에서부터 시작된다. 현대적 이면서도 전통에 충실하며 고급스러운 메뉴에선 한식에 대한 셰프의 철학을 엿볼 수 있다. 여기에 전 세계에서 가장 높은 층에 위치한 한식 레스토랑에서 바라보는 서울 전경은 또 다른 즐거움이다.,1 star
155,511992,명동 교자,칼국수,02-776-5348,"중구 명동 10길 29, Seoul, 04537, 대한민국",37.566,126.9784,[],₩,"1966년에 개점한 명동교자는 전통 조리법을 고수하는 칼국수 전문점으로 가족 경영 음식점이다. 선보이는 메뉴는 4가지 품목으로 단출하지만, 만두와 칼국수는 오랫동안 이곳을 대중들에게 알린 대표 메뉴라 할 수 있다. 소박한 서비스와 인테리어, 합리적인 가격 덕에 명동교자 밖에는 항상 손님들이 줄지어 문전성시를 이룬다. 한편, 같은 구역에 본점과 동일한 메뉴를 제공하는 2호점을 운영하고 있다.",bib
156,565611,나인스 게이트,프렌치,02-317-0366,"중구 소공로 106, 웨스틴 조선 호텔 1층, Seoul, 04533, 대한민국",37.5644,126.97969,"['발렛파킹', '에어컨', '주차장', '카운터 테이블', '휠체어 가능']",₩₩₩,"서울 프렌치 퀴진의 발전과 흐름을 논할 때 빼놓을 수 없는 나인스 게이트가 역동적인 서울 외식업계의 흐름에 발맞춰 제2막을 시작했다. 중후한 클래식 프렌치를 기반으로 하는 점은 여전하지만, 새 단장 후 한층 세련된 느낌의 요리를 선보인다. 노련한 소믈리에의 감각이 돋보이는 와인 리스트와 서비스는 이곳에서의 식사를 더욱더 풍요롭게 해준다. 변화와 기존 정취를 모두 다 느낄 수 있어서인지 단골손님들의 발길도 여전하다. 밤 10시 이후 바 테이블에서 선보이는 다양한 와인 테이스팅 프로그램 역시 매력적이다.",plate
157,511981,만두집,만두,02-544-3710,"강남구 압구정로 338, Seoul, 06018, 대한민국",37.52785,127.03898,[],₩,"고급 레스토랑이 즐비한 청담동 근방에서 30년 동안 만두 하나로 외길을 걸어온 만두집. 소박하고 정갈한 평안도 스타일의 만둣국이 이 집의 대표 메뉴로, 레스토랑의 내부 또한 아담하고 깔끔하다. 돌아가신 어머니의 가업을 계승한 현 대표는 많은 이들의 사랑을 받았던 어머니의 손맛을 묵묵히 지켜내고 있다. 정성 들여 빚은 이곳의 만둣국은 깔끔하면서도 감칠맛 나는 양지머리를 삶은 육수에 매콤한 양념을 얹어 내므로 혹 매운맛을 선호하지 않는다면 주문 시 양념을 빼달라고 부탁하면 된다.",bib
158,511954,황생가 칼국수,칼국수,02-739-6334,"종로구 북촌로 5길 78, Seoul, 03053, 대한민국",37.58003,126.98065,"['에어컨', '주차장']",₩,"하루 종일 길게 줄을 서는 이곳은 칼국수와 만두 전문점이다. 2001년에 북촌 칼국수로 시작해 2014년에 황생가 칼국수로 상호를 변경했지만, 예나 지금이나 맛있는 사골 칼국수와 만두를 먹기 위해 이곳을 찾는 손님들의 발걸음은 여전하다. 입구에서 잰 손놀림으로 만드는 왕만두는 매일 아침, 시장에서 선별한 신선한 재료로 그때그때 빚어 더없이 신선하다. 부드러운 칼국수의 면과 깊은 사골 육수의 맛이 일품이고, 옛날식 수육과 여름 한철 선보이는 콩국수도 별미이니 꼭 한번 맛보길 바란다.",bib
159,570655,무니,일식,02-511-1303,"강남구 도산대로 72길 16, Seoul, 06063, 대한민국",37.52291,127.04545,"['발렛파킹', '에어컨', '좋은 사케 리스트', '카운터 테이블']",₩₩₩₩,"화려한 청담동의 뒷골목에서 무심코 지나치기 십상인 일본 요리 전문점 ‘무니’. 현실적인 이유로 주방에서 일을 하기 시작했다는 김동욱 셰프는 처음부터 오로지 일식에만 집중했고, 나날이 커져가는 요리에 대한 갈증을 해소하기 위해 일본으로 떠났다. 가이세키의 정석이라고 표현하기에는 한계가 있는 것이 사실이다. 하지만 자신이 부지런히 수집해온 그릇에 제철 요리를 담아 계절감을 뚜렷하게 표현해 내는 등 그의 요리에는 전통적인 요소들이 녹아 있다. 일본 니혼슈 소믈리에(키키사케시) 자격증을 취득한 그에게 요리와 어울릴 만한 사케를 추천받는다면 한층 더 풍성한 다이닝을 경험할 수 있을 것이다.",1 star
160,512013,삼청동 수제비,수제비,02-735-2965,"종로구 삼청로 101-1, Seoul, 03049, 대한민국",37.58449,126.89189,['주차장'],₩,"삼청동의 역사와 떼려야 뗄 수 없는 삼청동 수제비는 1982년 영업 개시 이래 한자리를 꾸준히 지켜오고 있다. 이곳은 동네 만년 단골손님은 물론 입소문을 듣고 찾아오는 손님들 덕에 늘 문전성시를 이룬다. 이곳의 대표 메뉴인 잡내 없는 깔끔한 멸치 육수에 띄운 얇게  떼어낸 수제비는 부드러운 맛을 자랑하며, 100% 감자만을 이용해 만든 쫄깃한 감자전 또한 또 다른 인기 메뉴다. 줄 서서 기다리기 싫다면 가장 붐비는 정오부터 오후 2시 사이는 피하는 것이 좋지만, 그래도 언제나 늘 만원이다.",bib
161,511853,버드나무집,바비큐,02-3473-4167,"서초구 효령로 434, Seoul, 06729, 대한민국",37.48907,127.03118,"['발렛파킹', '에어컨', '주차장']",₩₩,"버드나무집은 1977년부터 명맥을 이어온 한우 구이 전문점이다. 초창기엔 주물럭만을 판매했지만, 지금은 소갈비와 특수 부위도 제공한다. 오랜 세월 한자리를 지켜온 동네 터줏대감답게 한 집안의 3대가 단골인 경우도 많다고 한다. 간장을 전혀 사용하지 않고 천일염으로만 간한 암소 갈비는 특유의 부드러운 육질과 고소한 풍미를 자랑한다. 조미료를 넣지 않은 깔끔하고 삼삼한 반찬 역시 이곳만의 매력이다.",plate
162,511947,할매집,족발,02-735-2608,"종로구 사직로 12길 1-5, Seoul, 03169, 대한민국",37.57563,126.9714,['신발을 벗고 올라오세요'],₩,"1975년, 문경자 할머니가 내자동에서 창업한 후 2006년에 현재 위치로 이전했다. 여타 다른 곳과는 달리 고춧가루로 매운맛을 내기 때문에 잡내 없는 깔끔한 맛을 느낄 수 있다. 감자탕도 깻잎과 들깻가루가 아닌 콩나물과 부추만을 사용해 시원하고 알싸한 맛이 일품이다. 여전히 주방 일을 도맡아 하시는 할머님이 테이블마다 돌아다니며 맛있게 먹는 법을 설명해주신다. 지방과 살이 많은 뒷다리와 지방은 적지만 부드러운 앞다리 중 선택은 자유다. 양도 푸짐하므로 여러 명이 함께 가길 추천한다.",bib
163,1210625,바오하우스,타이완,010-4888-1041,"부산진구 서전로 38번길 62-9, 2층, Busan, 47294, 대한민국",35.15488,129.06335,"['에어컨', '카운터 테이블']",₩,"최행락 셰프는 자신의 고향 부산에 바오하우스를 오픈하고 해외에서 셰프로 활동하며 쌓은 경험을 요리로 풀어 내고 있다. 바오하우스는 대만식 요리를 기반으로 삼아 캐주얼하고 심플한 요리를 선보인다. 최행락 셰프는 이처럼 요리의 문턱을 낮춤으로써 친숙하면서도 이국적인 중화권 요리를 편하게 즐길 수 있게 한다. 바오하우스에서는 대만식 찐빵 ‘바오’와 대만식 간장 소스 삼겹살 덮밥 ‘루로우판’, 마파두부, 어향가지튀김 등 음식 본연의 풍미와 셰프의 아이디어가 접목된 요리를 가볍게 즐길 수 있다. 레스토랑의 공간이 넓지 않고 예약을 받지 않으므로 대기 시간이 있을 수 있다.",bib
164,1210637,합천국밥집,"돼지국밥, 한식",051-628-4898,"남구 용호로 235, Busan, 48593, 대한민국",35.11124,129.11127,['에어컨'],₩,부산을 상징하는 음식 돼지 국밥은 시대와 식성의 변화와 함께 다양한 모습으로 변모해 왔다. 이러한 변화 속에서도 합천국밥집의 돼지 국밥은 오랜 시간 원칙을 고수하며 한결같이 매력적인 맛으로 손님의 발길을 이끈다. 합천국밥집은 특유의 고기 토렴 노하우로 잡내를 잡아 돼지고기의 풍미를 살리는 것이 특징이다. 특히 감칠맛과 깔끔한 맛이 동시에 느껴지는 맑은 국물은 시간이 지날수록 다시 생각나는 맛이다. 또 다른 인기 메뉴인 수육은 수량이 정해져 있어 서두르지 않으면 맛보기 힘들다. 11시부터 1시까지는 1인 식사가 되지 않는다는 점도 참고하시기 바란다.,bib
165,511872,도우룸,이탤리언,02-535-9386,"서초구 동광로 99, 2층, Seoul, 06584, 대한민국",37.566,126.9784,"['발렛파킹', '에어컨', '카운터 테이블']",₩₩,"100% 수제 파스타 면을 전문으로 하는 이탤리언 레스토랑. 영어로 ‘반죽’이라는 의미의 ‘도우’에서 이름을 딴 이곳에서 가장 주목해야 하는 곳은 파스타를 만드는 도우룸이다. 10가지 종류의 파스타를 제공하며, 포장 판매도 겸하고 있다. 레스토랑의 반 이상을 차지하고 있는 오픈 키친은 주방과 손님과의 거리를 최소화하고 음식의 맛에 대한 손님들의 반응을 실시간으로 확인하고 싶은 셰프의 마음을 반영했다. 정통 이탤리언 파스타 외에도 메밀과 곰취를 이용한 한국적인 파스타도 맛볼 수 있다.",plate
166,511964,정인면옥,냉면,02-2683-2615,"영등포구 국회대로 76길 10, Seoul, 07238, 대한민국",37.5307,126.92167,"['에어컨', '주차장', '휠체어 가능']",₩,"좋은 품질의 식재료와 변함없는 맛에 대한 정인면옥 대표의 고집이 냉면 한 그릇에 고스란히 담겨 있다. 북한 출신 부모님의 존함에서 한 자씩 따온 식당 이름도 전통을 계승하고자 하는 그의 의지의 반영이다. 2014년, 서울 여의도로 이전 오픈한 이곳은 현재 광명시에 있는 정인면옥과는 별개로 운영되고 있다. 직장인들이 많은 여의도에 위치한 까닭에 점심시간에는 어느 정도 대기 시간을 감안해야 한다. 아롱사태 수육, 암퇘지 편육과 접시 만두는 반 접시만도 주문이 가능하다.",bib
167,1210632,언양불고기 부산집,불고기,051-754-1004,"수영구 남천바다로 32, Busan, 48304, 대한민국",35.14783,129.11337,"['에어컨', '주차장']",₩,흔히 부산집으로 불리는 이곳은 오랜 시간 광안리 앞을 지켜 온 터줏대감으로 늘 문전성시를 이룬다. 수십 년을 운영하던 곳을 떠나 2018년에 지금의 위치로 이전했다. 육수를 넣고 자작하게 끓여 내는 서울식 불고기와는 달리 언양식은 양념한 고기를 석쇠에 올려 굽거나 직화 구이 방식을 이용한다. 서울식이 달달한 맛이라면 언양식은 단맛이 적고 한우 등심의 고소한 맛을 더 강조하며 소스에서 나오는 산미가 상큼함을 더한다. 부산집에서는 불고기 외에 다양한 특수 부위도 맛볼 수 있다. 오늘은 광안리 앞바다를 보면서 흰밥에 고기 한 점 드셔 보시길.,plate
168,511846,비스트로 드 욘트빌,프렌치,02-541-1550,"강남구 선릉로 158길 13-7, Seoul, 06014, 대한민국",37.52602,127.04126,"['발렛파킹', '에어컨', '카운터 테이블']",₩₩,클래식한 프렌치 비스트로를 그대로 옮겨놓은 듯한 비스트로 드 욘트빌. 이곳의 편안하고 아늑한 분위기는 마치 프랑스 본토에 와 있는 듯한 착각에 빠져들게 한다. 기본에 충실한 타미 리 셰프의 프랑스 요리는 그의 세심한 배려와 끊임없는 노력을 대변한다. 레스토랑의 이름도 캘리포니아 나파 밸리의 ‘프렌치 런드리’ 레스토랑이 있었던 욘트빌에서 따올 만큼 그곳에서 지낸 최고의 경험을 손님들에게도 선사하고 싶었다고. 그가 선사하는 맛있는 음식과 분위기를 음미하며 잠시 도심의 소란스러움을 잊어보는 것도 좋을 듯하다.,plate
169,1210599,융캉찌에,"국수, 타이완",051-758-6011,"수영구 광안해변로 277번길 10, Busan, 48287, 대한민국",35.15639,129.12424,['에어컨'],₩,융캉찌에는 광안리 인근 민락골목시장으로 이어지는 골목 초입에 위치한 우육탕면 레스토랑이다. 외관에서부터 실내까지 일관된 디자인과 디테일한 장식이 대만 현지의 분위기를 제대로 살렸다. 대만식을 지향하는 따끈한 우육탕면 한 그릇이 캐주얼하고 이국적인 식당의 분위기와 잘 어울린다. 은은한 산미와 함께 감칠맛이 나는 우육탕면 국물과 식감 좋은 두툼한 면발은 사시사철 언제든지 편하게 즐길 수 있는 맛이다. 주메뉴인 우육탕면 외에 다른 중국식 면 요리와 부대 메뉴도 준비되어 있어 기호에 맞게 선택할 수 있다. 자체 주차 공간이 없으니 차량 이용 시 참고하시기 바란다.,plate
170,1210441,슌사이 쿠보,"장어, 일식",051-365-2959,"북구 양달로 4번길 17, Busan, 46517, 대한민국",35.24088,129.01472,"['에어컨', '주차장']",₩,이재욱 셰프의 슌사이 쿠보는 히츠마부시 전문점이다. 일본에서 수련한 셰프는 히츠마부시의 맛과 품질을 자신이 추구하는 명확한 기준까지 끌어올리기 위해 정진하고 있다. 이곳에서는 자포니카종인 생물 풍천 장어만을 사용한다. 정성껏 소스를 발라 구운 장어의 그윽한 향과 씹는 맛을 살린 식감이 고슬고슬 잘 지어진 밥과 어우러져 조화로운 맛을 준다. 어린이용 장어 덮밥도 준비하여 아이를 동반한 가족 손님에 대한 배려도 잊지 않았다. 또한 과거 슌사이 쿠보의 갓포 요리를 기억하는 손님들을 위해 기본에 충실한 가벼운 안줏거리도 제공하고 있다.,bib
171,1210582,나막집,돼지국밥,051-746-4882,"남구 분포로 145, W 스퀘어 A동 1068호, Busan, 48515, 대한민국",35.13461,129.11187,"['에어컨', '주차장', '카운터 테이블']",₩,"부산은 돼지 국밥의 도시답게 국밥의 스타일도 다양하다. 돼지 국밥 고유의 맛은 유지하면서도 가게마다 국물을 내는 방식을 조금씩 달리하는 점이 특징이다. 나막집은 고기 육수에서 채수의 비율을 높여 진득한 맛보다는 가벼우면서도 깔끔한 국물 맛을 즐길 수 있다. 주메뉴인 돼지 국밥 외에 국밥 육수를 사용한 고기칼국수와 생면칼국수, 수육과 삼겹구이 등 부대 메뉴도 선택이 가능하다. 모던한 느낌의 공간에서 뒷맛이 깔끔한 돼지 국밥을 즐기기에 안성맞춤이다.",plate
172,1207048,부다면옥,냉면,051-746-8872,"해운대구 중동 1로 36, 2층, Busan, 48095, 대한민국",35.16237,129.16298,[],₩,"반여동의 부다밀면에 익숙한 분들이라면 부다면옥이라는 이름이 생소하지 않을 것이다. 지난 2021년에 이곳 해운대로 자리를 옮긴 부다면옥은 100% 순 메밀면으로 만든 평양냉면을 판매한다. 뚝뚝 끊길 것 같지만 제법 탄력도 있고 씹을수록 고소한 순면, 그리고 한우를 우린 국물에 채수를 섞어 구수하고 슴슴한 감칠맛이 풍부한 국물이 일품이다. 새콤달콤한 무와 얼갈이, 오이 같은 고명이 따로 나오는데 취향에 따라 얹어 먹으면 그 맛에 중독될 것이다.",bib
173,570668,정육면체,국수,070-4179-3819,"서대문구 연세로 5다길 22-8, Seoul, 03789, 대한민국",37.55665,126.93576,"['에어컨', '카운터 테이블']",₩,"'정육면체(情肉麵體)'는 각각 '마음'과 '고기', '국수', '식당'을 뜻하는 한자를 조합해 만든 이름이다. 오로지 다양한 면 요리를 선보이고 싶어 친구들끼리 의기투합하여 만든 작은 공간이다. 사골과 소고기를 장시간 고아 만든 육수가 베이스인 우육면, 땅콩과 깨를 갈아 넣은 고소한 즈마장을 곁들인 깨부수면이 이곳의 간판 메뉴다. 현재는 동남아식 면 요리와 중식 위주의 메뉴를 제공하고 있지만, 점차 다른 문화권의 면 요리도 선보일 예정이라고 한다. 식당에서 직접 뽑은 생면의 쫄깃한 식감이 돋보이는 재기 발랄한 면 요리를 즐길 수 있는 곳이다. 전 좌석이 오픈형 주방을 에워싸고 있는 카운터석이다.",bib
174,570659,소설한남,한식,02-797-5995,"용산구 한남대로 20길 21-18, 지하1층, Seoul, 04419, 대한민국",37.53528,127.00914,"['발렛파킹', '에어컨', '주차장']",₩₩₩,"한 편의 소설(小說) 같은 한식. ‘서울의 현 시대를 반영한 한식(SO SEOUL)’이라는 중의적 의미를 갖고 있는 '소설한남'은 소박하고 정갈한 한식을 현대적으로 재해석하는 곳이다. 맛의 조화가 곧 한식의 매력이라고 생각한다는 셰프는 한국인에게 너무 익숙하기 때문에 감동적인 식사를 제공하기 어려울 수 있는 무침, 지짐, 찜 등의 요리를 친숙한 재료를 활용해 만들어 낸다. 다시마 부각과 청국장, 곰취와 묵은지를 곁들여 먹는 생선회를 비롯해 숯불구이 주꾸미와 닭 요리도 별미이다.",1 star
175,1205874,계월곰탕,곰탕,070-8703-0310,"성동구 성덕정 3길 8, Seoul, 04774, 대한민국",37.53952,127.04762,['카운터 테이블'],₩,"성수동 계월 곰탕. 이름에서 알 수 있듯이 닭곰탕을 맛볼 수 있는 곳으로 메뉴도 닭으로 만든 요리 세 가지가 전부다. 이곳의 곰탕은 따뜻한 밥 위에 저온으로 부드럽게 조리한 닭 가슴살과 아삭하게 데친 얼갈이 배추, 기름을 걷어낸 깔끔한 육수를 더해 심심하면서도 풍부한 맛을 자랑한다. 점심에는 김부각과 함께 내는 매콤한 닭무침, 된장을 발라 토치로 구운 닭 수육을 저렴한 가격에 곁들임 메뉴로 즐길 수 있다. 여름에는 차가운 국수도 판매하니 참고하시길.",bib
176,1192586,우육면관,국수,070-4213-5678,"종로구 청계천로 75-2, Seoul, 03190, 대한민국",37.56854,126.98612,"['에어컨', '카운터 테이블']",₩,"노포들이 즐비한 종각역 부근 청계천로에 위치한 우육면관은 작은 입구에 흰색과 적갈색의 인테리어가 시선을 끌어당긴다. 흔히 우육면은 대만 음식으로 알고 있지만 사실 우육면은 중국 란저우시에서 유래한, 모든 중화권의 대중적인 음식이다. 이곳에서는 셰프가 중국 산동성에서 직접 전수받은 레시피를 사용하여 대만식과는 조금 다른 우육면을 선보인다. 깔끔하고 진하면서 살짝 단맛이 도는 국물에 고수를 듬뿍 올려 먹거나, 라장을 추가하여 좀 더 진한 맛을 즐길 수 있다. 단일 메뉴만 판매하나 중국식 물만두와 오이소채를 곁들여 먹을 수 있으니 참고하길. ",bib
177,570656,미토우,일식,010-7286-9914,"강남구 도산대로 70길 24, Seoul, 06064, 대한민국",37.52206,127.04502,"['발렛파킹', '에어컨', '좋은 사케 리스트', '주차장', '카운터 테이블']",₩₩₩₩,"미토우는 제철 식재료를 이용해 자신들만의 방식으로 일본 전통 요리를 표현하는 권영운, 김보미 셰프의 재능이 돋보이는 공간이다. 이들은 미토우의 요리에 계절감을 담기 위해 끊임없이 정진한다. 이런 노력은 품질 좋은 식재료를 고르는 데에서도 드러난다. 미토우의 요리에 쓰이는 닭과 달걀, 쌀과 채소는 모두 셰프의 가족이 운영하는 농장에서 공급받고 있다. 셰프들의 손을 거쳐 미토우의 식탁에 오르는 요리는 이런 정성 어린 노력의 결정체라 할 수 있다. 미토우의 요리에서는 셰프가 요리를 공부하며 얻었다는 수련자의 진중함과 겸손함, 정진하는 마음가짐이 고스란히 느껴진다. 계절이 바뀔 때마다 미토우의 식탁을 기대하는 하는 이유다.",2 star
178,511826,알라 프리마,이노베이티브,02-511-2555,"강남구 학동로 17길 13, Seoul, 06045, 대한민국",37.51346,127.02602,"['발렛파킹', '에어컨', '카운터 테이블']",₩₩₩₩,"늘 과감하고 창의적인 요리로 미식가들의 발길을 유혹하는 알라 프리마. 오픈된 주방이 한눈에 들어오는 넓은 카운터 테이블과 쾌적한 다이닝 홀, 그리고 프라이빗 다이닝 공간이 모던하게 펼쳐진다. 재료를 생명으로 여기는 김진혁 셰프의 요리는 깔끔한 소스, 맛의 밸런스, 그리고 계절 식재료들의 향연이라 할 수 있다. 와인뿐만 아니라 사케와도 잘 어울리는 이 곳의 모던 퀴진을 경험하려면 예약은 필수다.",2 star
179,570664,오스테리아 오르조,이탤리언,02-322-0801,"용산구 한남대로 20길 47, 2층, Seoul, 04419, 대한민국",37.53486,127.00946,"['발렛파킹', '카운터 테이블']",₩₩,"이탈리아어 '오스테리아'는 간단한 음식과 와인을 함께 즐길 수 있는 '선술집'을 의미하는데, '오스테리아 오르조'는 이름 그대로 이탈리아의 맛과 멋을 느낄 수 있는 아늑한 공간이다. 이곳의 대표 메뉴는 소고기 다짐육과 마스카르포네 치즈, 트러플 페이스트가 들어간 진한 소스에, 레스토랑에서 직접 뽑은 생면을 곁들인 화이트 라구 파스타이다. 매콤한 소스를 듬뿍 머금은 탈리아텔레와 해산물 타르타르도 빼놓을 수 없는 별미이다. 주방 앞 테이블에 앉아 파스타가 완성되는 모습을 지켜보는 재미도 쏠쏠하다.",plate
180,548111,모모야마,일식,02-317-7031,"중구 을지로 30, 롯데호텔 38층, Seoul, 04533, 대한민국",37.5653,126.98097,"['발렛파킹', '에어컨', '전망이 좋은', '좋은 사케 리스트', '주차장', '카운터 테이블', '휠체어 가능']",₩₩₩₩,"수준 높은 정통 일식을 표방하는 롯데호텔의 모모야마에선 정통 가이세키 요리를 비롯해 스시, 구이, 튀김, 오차즈케, 나베 요리 등 정갈하고 고급스러운 일식을 선보인다. 재료의 신선도에 따라 요리의 성패가 좌우되는 일식의 특성을 고려해 최상급의 식재료를 셰프가 직접 국내에서 공급받는다. 이곳에선 기본에 충실한 요리뿐만 아니라 정갈한 서비스 또한 각별하다. 서울의 도심 풍경을 바라보며 즐길 수 있는 스시 오마카세도 꼭 한번 맛볼 것. 사케 소믈리에가 추천하는 40여 종의 다양한 사케도 준비되어 있다.",plate
181,1202660,이타닉 가든,이노베이티브,02-727-7610,"강남구 테헤란로 231, 조선팰리스 호텔 36층, Seoul, 06142, 대한민국",37.50304,127.04158,"['발렛파킹', '에어컨', '전망이 좋은', '주차장', '카운터 테이블', '휠체어 가능']",₩₩₩₩,'이타닉 가든'의 '식물원'은 '심을 식(植)' 자가 아닌 '먹을 식(食)' 자를 사용한다.,1 star
182,1199936,기가스,지중해식,02-3448-9929,"중구 퇴계로 6가길 30, 3층, Seoul, 04635, 대한민국",37.55696,126.97809,"['발렛파킹', '에어컨', '카운터 테이블']",₩₩₩,[레스토랑 이전으로 인한 새로운 주소지입니다.],plate
183,548122,서울 다이닝,컨템퍼러리,02-6325-6321,"중구 동호로 272, 디자인하우스 2층, Seoul, 04617, 대한민국",37.55919,127.00359,"['에어컨', '주차장']",₩₩,"서울의 특징을 요리에 반영한다? 서울 다이닝 요리는 고객에게 서울만의 미식 경험을 느끼게 할 수는 없을까, 라는 셰프의 자문에서 시작한다. 이 모티브를 바탕으로 제철 식재료와 셰프의 창의성이 결합되어 서울 다이닝만의 재치 있는 요리들이 고객의 식탁에 오른다. 다양한 식문화가 공존하는 서울의 특징을 고려해 곳곳에 다양한 풍미를 느낄 수 있는 재료와 소스를 사용한 것도 서울 다이닝만의 묘미다. 모던하고 활기찬 다이닝 공간 역시 재기 발랄한 요리 스타일과 절묘한 조화를 이룬다.",plate
184,1200225,일드청담,컨템퍼러리,02-545-4015,"강남구 도산대로 59길 13, 2층, Seoul, 06016, 대한민국",37.52466,127.04189,"['발렛파킹', '에어컨', '주차장', '카운터 테이블']",₩₩₩₩,‘도심속의 섬(ile)’이란 뜻의 일드 청담. 일식과 한우 오마카세의 장점만을 모아 코스로 제공하는 이곳은 원래 회원제로만 운영되었으나 좀 더 많은 고객에게 미식 경험을 제공하기 위해 일반 레스토랑으로 전환하였다. 그날그날 달라지는 재료를 식전에 선보여 재료를 직접 확인하게 하는 일부터 세 번에 걸쳐 우려내는 마지막 티 세리모니(tea ceremony)까지 레스토랑의 섬세함을 느낄 수 있다. 이곳은 예약제로만 운영된다.,plate
185,548113,미미 면가,소바,070-4233-5466,"강남구 강남대로 160길 29, Seoul, 06028, 대한민국",37.52003,127.02108,"['발렛파킹', '에어컨', '카운터 테이블']",₩,"재치 있는 소바 요리로 손님들의 발길이 끊이지 않는 미미 면가. 이곳의 메밀 면은 쫄깃한 식감을 자랑하는데, 메밀 함량 3할이라는 파격적인 비율 덕분이다. 그럼에도 불구하고 메밀의 구수한 풍미가 살아 있는 것을 보면 장승우 셰프의 노력과 고민의 흔적이 엿보인다. 이곳은 기본이 탄탄한 자루소바 외에도 형식에 구애받지 않는 다양한 메뉴가 인상적이다. 국수 한 그릇의 온도, 국물과 고명에 따라 각각의 개성이 뚜렷한 소바 요리를 즐기고 싶다면 미미 면가로 향하자.",plate
186,512036,볼트 스테이크하우스,스테이크하우스,02-544-9235,"강남구 압구정로 72길 22, 2층, Seoul, 06015, 대한민국",37.52496,127.04496,"['발렛파킹', '에어컨']",₩₩₩₩,"볼트 스테이크하우스는 인테리어에서부터 맛과 품질에 이르기까지 미국식 정통 스테이크 하우스를 표방한다. 미국 농무부가 인증한 프라임육 중에서도 항생제와 성장호르몬을 주입하지 않은 소고기만을 엄선해 사용하므로 품질에 대한 신뢰도가 높은 곳이기도 하다. 28일과 14일간 건조 숙성시킨 스테이크가 주메뉴로, 다양한 소고기 부위를 제공한다. ",plate
187,1199321,스시결,스시,02-518-5266,"강남구 선릉로 758 2층, Seoul, 06062, 대한민국",37.52242,127.0396,"['발렛파킹', '에어컨', '주차장', '카운터 테이블']",₩₩₩₩,[레스토랑 이전으로 인한 새로운 주소지입니다.],plate
188,1194907,오부이용,"프렌치, 전통 프랑스 요리",02-6401-1048,"성동구 독서당로 51길 29-1, Seoul, 04718, 대한민국",37.5311165,127.0073647,['에어컨'],₩₩,"아파트 단지로 둘러싸인, 예스러움이 묻어 있는 금호동의 작은 골목에 숨겨진 프렌치 레스토랑. 레스토랑에 들어서면 외관과는 너무나 다른 분위기의 프렌치 소품과 장식들로 꾸며진 공간과 마주하게 된다. 이 분위기와 절묘하게 어우러지는 클래식 프렌치 요리들이 미감에 즐거움을 선사한다. 기본에 충실한 클래식 프렌치 요리를 합리적인 가격으로 제공한다는 셰프의 원칙이 잘 반영된 이곳에서는 요리와 공간의 절묘한 조화와 설득력이 느껴진다.",plate
189,511858,카덴,일식,02-3142-6362,"서대문구 연희로 173, 2층, Seoul, 03699, 대한민국",37.57257,126.9351,"['발렛파킹', '좋은 사케 리스트', '주차장', '카운터 테이블']",₩₩,"항상 새로운 변화를 모색하는 이자카야 로바다야 카덴.  일식의 다양성을 보여주는 카덴의 단품 메뉴는 2층에서 꾸준하게 선보이고, 1층 우동 카덴 에서는 가벼운 식사를 원하는 손님들을 위해 다양한 우동 메뉴를 제공 한다.  신선한 재료로 만든 수준 높은 요리를 합리적인 가격에 제공해 그 어느 때보다 다양한 고객층의 발길이 줄을 잇는 이곳 카덴엔 사케를 포함한 각종 일본 주류도 갖춰져 있다.",plate
190,1201705,솔밤,"컨템퍼러리, 코리안 컨템퍼러리",070-4405-7788,"강남구 학동로 231, 2층, Seoul, 06053, 대한민국",37.516,127.03378,"['에어컨', '주차장']",₩₩₩₩,[레스토랑 이전으로 인한 새로운 주소지입니다.],1 star
191,1201485,리북방,한식,02-720-2345,"마포구 마포대로 1길 16, 2층, Seoul, 04165, 대한민국",37.5396777,126.9431187,"['에어컨', '카운터 테이블']",₩₩,"레스토랑의 이름처럼 이북 음식을 즐길 수 있는 공간이다. 리북방이 전하는 이북 음식의 핵심은 셰프 가족의 내리 음식인 순대에 있다. 전통적인 조합의 순대부터 창의적으로 식재료가 어우러진 순대까지 다양한 순대 요리를 코스에 포함시킨 셰프의 참신한 아이디어가 돋보인다. 단순히 익숙한 것을 새롭게 포장하는 보여주기 식이 아닌 집안에서 내려오는 맛의 전통을 계승하고 자신의 경험을 더해 익숙한 요리를 완성도 높은 요리로 승화시킨 점이 매력적이다. 100년이 넘은 한옥의 대들보와 문을 이용해 만든 고재 바 테이블과 공간이 주는 전통적인 분위기, 순대를 중심으로 전개되는 다양한 이북 음식을 시대에 맞게 표현한 요리가 가치 있는 경험을 제공한다.",plate
192,1201786,원 디그리 노스,"아시안, 싱가포리안",070-4333-8884,"강남구 학동로 43길 8, Seoul, 06061, 대한민국",37.516773,127.037424,['에어컨'],₩,"싱가포르의 좌표를 표현한 레스토랑 이름에서 느껴지듯이 이곳은 대중적인 싱가포르 현지의 요리와 아시안 바비큐 메뉴를 선보이고 있다. 전통 조리법을 기반으로 젊은 셰프의 정교하고 기술적인 감각이 더해진 싱가포르 치킨 라이스, '광동 크리스피 로스트 포크'는 대표 메뉴답게 현지의 대중적인 맛과 풍미를 온전히 제공한다. 서울에서 즐길 수 있는 현지의 맛은 언제나 즐거운 미식 경험이다.",bib
193,1200341,정면,국수,010-9974-3592,"광진구 능동로 13길 88, Seoul, 05012, 대한민국",37.54551,127.06866,"['에어컨', '카운터 테이블']",₩,"7석 남짓의 스테인리스 테이블과 오픈형 주방이 전부인 이곳. ‘뜻이 담긴 국수’라는 뜻의 정면은 셰프가 홀로 운영하는 고기 국수 집이다. 메뉴는 백면과 홍면, 딱 두가지가 전부이지만 깊은 맛 하나는 일품이다. 해물과 돼지고기, 닭고기를 이용해 만든 육수에서 깊은 맛을 느낄 수 있으며 얇게 저민 쫄깃한 돼지고기와 양파, 홍고추가 올라간 쌀국수는 보기만 해도 풍성하다. 홍면은 맵기 조절이 가능하며 작은 공깃밥이 함께 나와 배부른 한 끼를 즐길 수 있다.",bib
194,1209571,델리봉,프렌치,,"연제구 신금로 25, 노블레스 스퀘어 110호, Busan, 47560, 대한민국",35.19148,129.09437,"['에어컨', '카운터 테이블']",₩₩,"직접 만든 샤퀴트리(수가공 햄)로 구성된 코스라니, 도대체 궁금하지 않은가? 델리봉의 주인장 박정봉 셰프는 오랜 시간 프렌치 다이닝을 운영하다가 이곳에 새롭게 둥지를 틀었다. 10석 남짓한 작은 공간에 아담한 바 좌석과 테이블, 어두운 조명에 간판이 없어 처음에는 찾기 어려울지 모른다. 코파, 잠봉, 리예트, 프로슈토 등 시간을 들여 정성스럽게 염장과 건조를 거쳐야 하는 가공육들과 이를 이용한 세련된 요리들이 기다리고 있다. 궁금하지 않은가? 예약을 꼭 하고 가시길 바란다.",plate
195,511975,라미띠에,프렌치,02-546-9621,"강남구 도산대로 67길 30, 2층, Seoul, 06015, 대한민국",37.52591,127.04455,"['발렛파킹', '에어컨']",₩₩₩,"2006년부터 ‘정성의 온기가 담긴 프렌치 퀴진’을 선보여온 장명식 셰프의 ‘라미띠에’. 변함없는 안정감을 보여주는 이 곳은 촉촉하게 쪄낸 완도산 전복에 전복 내장 에스푸마와 향긋한 마늘 퓨레, 셀러리 피클을 곁들인 전복 요리, 그리고 샤프란 향이 매력적인 리소토에 빵가루를 입혀 바삭하게 튀겨낸 아란치니는 라미띠에의 요리가 가진 특징을 잘 보여주는 시그니처 메뉴다. 오랜 시간이 흘러도 한결같은 셰프의 열정을 라미띠에의 요리에서 경험해 보기를 바란다.",1 star
196,511952,홍연,중식,02-317-0494,"중구 소공로 106, 웨스틴 조선 호텔 1층, Seoul, 04533, 대한민국",37.56441,126.9797,"['발렛파킹', '에어컨', '좋은 사케 리스트', '주차장', '휠체어 가능']",₩₩₩₩,"강렬한 붉은 톤의 인테리어가 눈길을 사로잡는 차이니즈 레스토랑 홍연은 광둥식 요리 전문점으로 우아한 분위기에서 중식 정찬의 진수를 맛볼 수 있다. 노련한 주방 팀이 만들어내는 요리는 맛도 훌륭하지만 영양학적으로도 조화로운 건강식이다. 무겁지 않은 해산물, 두부, 채소 요리에 중점을 두고 있으며, 다소 시간이 걸리더라도 고객의 건강을 최우선으로 생각하는 조리법으로 음식을 준비한다. 매일 저녁 선보이는 라이브 뮤직도 즐거운 식사 환경에 한몫한다.",plate
197,511958,자하 손만두,만두,02-379-2648,"종로구 백석동길 12, Seoul, 03020, 대한민국",37.59309,126.96603,"['발렛파킹', '신발을 벗고 올라오세요', '전망이 좋은', '주차장', '테라스']",₩,"할머니와 어머니의 요리 솜씨를 이어받은 박혜경 대표의 자하 손만두. 1993년부터 부암동을 지켜온 만두 전문점으로 박 대표가 살던 집을 개조해 만든 레스토랑이다. 이 집 만둣국의 특징은 일체의 조미료를 배제하고 직접 담근 조선간장으로 맛을 낸 삼삼한 국물에 있다. 국내산 밀가루로 만든 쫄깃한 만두피도 빼놓을 수 없다. 정성껏 준비한 건강한 음식을 푸짐하게 대접하고자 하는 자하 손만두의 소신이 느껴지는 대목이다. 한편, 단아한 내부와 인왕산의 절경이 한눈에 들어오는 훌륭한 조망도 이 집의 매력을 한층 높여준다.",bib
198,548118,벽제갈비,바비큐,02-415-5522,"송파구 양재대로 71길 1-4, Seoul, 05639, 대한민국",37.51007,127.12619,"['발렛파킹', '에어컨', '주차장']",₩₩₩,"양념 소갈비의 대명사로 불리는 벽제갈비에선 매일 마리째 경매하는 최상위 1% 한우(BMS No9)를 사용한다. 이곳이 오랜 시간 바비큐, 냉면, 탕류 등 다양한 한식 요리에서 한결같은 맛을 유지할 수 있었던 비결은 바로 분야별 장인들로 구성된 팀의 지식과 전문성에 기반을 두고 있다. 이곳에선 대표 메뉴인 설화생갈비와 설화꽃등심을 비롯해 다양한 탕 요리와 식사 메뉴를 제공해 가벼운 한 끼 식사를 선호하는 손님은 물론, 푸짐한 소고기 바비큐를 원하는 단체 모임까지 가능해 매 끼니때마다 인산인해를 이룬다.",plate
199,511978,임병주 산동 칼국수,칼국수,02-3473-7972,"서초구 강남대로 37길 65, Seoul, 06734, 대한민국",37.48458,127.02988,"['발렛파킹', '주차장']",₩,"1988년에 문을 열어 30년 이상의 긴 역사를 자랑하는 임병주 산동 칼국수. 매일 신선한 재료로 직접 만들어내는 수제 칼국수를 찾는 사람들은 여전하다. 기분 좋은 쫄깃한 식감과 푸짐하게 들어간 조개에서 우러나온 시원한 국물 맛이 일품이다. 더불어 평양식 왕만두, 고소한 콩국수, 물고추를 갈아 만든 겉절이까지 여전히 맛있는 음식을 즐길 수 있다.",bib
200,565606,광화문 국밥,돼지국밥,02-738-5688,"중구 세종대로 21길 53, Seoul, 04519, 대한민국",37.5689,126.97541,['주차장'],₩,"광화문 국밥은 박찬일 셰프가 운영하는 돼지국밥 전문점으로, 흰색 간판의 정갈한 이미지가 그의 음식과 꼭 닮아 있다. 흑돼지 엉덩이 살과 듀록 돼지 어깨 살로만 맛을 내는 이곳의 돼지국밥은 맑고 깨끗한 동시에 은은한 향과 깊은 맛을 자랑한다. 국밥이지만 국물과 밥을 따로 내는 이유는 갓 지은 밥맛을 최대한 살리기 위해서라고 한다. 거기에 넉넉하게 올려 내는 부추 고명이 육수에 향긋함을 더해준다. 편안하게 한 끼 식사를 즐기기에 안성맞춤인 곳이다.",bib
201,548070,교다이야,우동,02-2654-2645,"마포구 성지길 39, Seoul, 04083, 대한민국",37.54681,126.91317,['에어컨'],₩,"합정역 근처의 조용한 주택가에 들어서면 나무 도마에 탁탁탁 작두날 튕기는 소리가 경쾌하게 들려온다. ‘형제의 집’을 뜻하는 교다이야는 두 형제가 운영하는 우동 전문점이다. 이곳에선 주문이 들어오는 대로 면을 써는 것을 원칙으로 한다. 면을 만들어놓으면 수분이 증발해 사누키 우동 특유의 매력을 느낄 수 없기 때문이다. 탱글탱글한 동시에 쫄깃하며 매끄러운 사누키 우동 면발, 정어리 훈제 포와 연간장으로 맛을 낸 시원한 감칠맛의 국물. 늘 한결같은 이곳의 우동 맛은 두 사장의 뚝심 있는 모습과 닮아 있다.",bib
202,511830,백년옥,두부,02-523-2860,"서초구 남부순환로 2407, Seoul, 06719, 대한민국",37.48115,127.01374,"['발렛파킹', '에어컨']",₩,"예술의전당 맞은편 도로변에 위치한 백년옥은 1992년 영업을 개시한 이래 많은 이들의 사랑을 받는 두부 요리 전문점이다. 세월이 고스란히 묻어나는 소박한 실내는 테이블석과 방석 자리로 나뉘어 있다. 두부 전문점답게 콩비지, 되비지, 신선한 순두부 등 여러 가지 수제 두부 요리를 선보인다. 손님들이 붐비는 식사 시간에 본관이 만석일 경우, 신관의 식사 공간을 이용하기 바란다.",plate
203,570675,현우동,우동,02-515-3622,"강남구 논현로 149길 53, Seoul, 06039, 대한민국",37.566,126.9784,['카운터 테이블'],₩,삼전동 시절 이미 유명세를 떨쳤던 우동의 달인 박상현 셰프의 논현동 우동 전문점 겸 제면소. 통통한 우동 면발을 한입 가득 베어 물면 매끈하면서도 탄력 있는 사리의 기분 좋은 식감과 씹을수록 은은하게 퍼지는 단맛을 동시에 즐길 수 있다. '현우동'의 대표 메뉴는 ‘덴푸라 붓카케’ 우동이다. 굵직하고 탱탱한 면발과 갓 튀겨 낸 바삭하고 폭신한 튀김이 감칠맛 가득하면서도 섬세한 쯔유와 절묘한 조화를 이룬다.,bib
204,512031,톡톡,컨템퍼러리,02-542-3030,"강남구 학동로 97길 41, 3층, Seoul, 06072, 대한민국",37.52237,127.05429,"['발렛파킹', '에어컨', '카운터 테이블']",₩₩,요리에 대한 김대천 셰프의 꾸준한 향상심과 좋은 재료에 대한 고집은 ‘톡톡’의 요리에서 뚜렷이 나타난다. ‘톡톡(Toctoc)’과 ‘요리학(Gastronomy)’을 합성한 ‘Toconomy’에는 김대천 셰프의 요리 철학이 담겨 있다. 김대천 셰프는 정확한 조리법으로 식재료 본연의 맛을 고스란히 전달하는 데 중점을 둔다. 그만큼 재료의 가치를 중요하게 생각하는 것이다. 트러플 만두와 개성 넘치는 파스타 요리들은 셰프의 정성과 창의성이 어떻게 톡톡의 요리에 반영되어 있는지를 잘 보여준다. 코스 요리 외에도 완성도 높은 다양한 단품 요리로 구성된 메뉴를 통해 톡톡이 제공하는 다양한 요리의 풍미를 즐길 수 있다.,plate
205,570670,쿠시카와,쿠시아게,02-579-0538,"강남구 논현로 24길 37, Seoul, 06300, 대한민국",37.48268,127.04566,['카운터 테이블'],₩₩,"일본 유학 시절 섭렵했던 일본의 대중 요리를 밑거름 삼아 '쿠시카와'를 오픈한 윤석현 대표. '쿠시카와'는 일본의 대표적인 대중 음식 중 하나인 꼬치 튀김(쿠시카츠)을 전문으로 하는 곳이다. 그날의 재료에 따라 제공되는 주방장 특선 요리 '오마카세' 코스는 약 14종의 꼬치 튀김으로 구성되며, 해산물과 육류, 채소 등 다양한 식재료를 곁들여 먹는 즐거움이 쏠쏠하다. 고객들의 만족스러운 표정을 볼 때마다 보람을 느낀다는 대표는 어린 시절을 보낸 동네에서 가게를 운영할 만큼 지역 주민의 입맛을 사로잡기 위해 노력한다고 한다.",plate
206,565605,고료리 켄,"컨템퍼러리, 재패니즈 컨템퍼러리",02-511-7809,"강남구 언주로 152길 15-3, 2층, Seoul, 06021, 대한민국",37.52298,127.03478,"['발렛파킹', '에어컨', '좋은 사케 리스트', '카운터 테이블']",₩₩₩₩,"요리에 매진하는 셰프의 움직임 하나하나를 지켜볼 수 있는 여덟 석의 한정된 공간. 직접 발로 뛰어 선별한 신선한 재료에 창의적인 아이디어와 현대적인 조리법이 더해진 김건 셰프의 요리에는 고료리 켄이 꾸준히 지향해온 정체성이 담겨 있다. 늘 신선한 양질의 재료를 고객에게 제공하기 위해 모든 재료를 당일 소진한다는 셰프의 원칙에서 신뢰감을 느낄 수 있다. 한결같은 맛과 정성이 손님을 맞는 기본 자세라고 생각하는 김건 셰프, 그의 요리를 즐기기 위해 예약은 필수이다.",1 star
207,512033,툭툭 누들 타이,타이,070-4407-5130,"마포구 성미산로 161-8, Seoul, 03980, 대한민국",37.56514,126.92401,"['발렛파킹', '에어컨', '주차장', '테라스']",₩,"현지에서 경험할 수 있는 정통의 맛을 국내에서도 즐길 수 있다는 것은 참으로 반가운 일이다. 임동혁 사장과 태국인 셰프가 의기투합해 오픈한 툭툭 누들 타이는 바로 이러한 취지로 탄생한 태국 음식 전문점이다. 이곳에선 레몬 그라스와 고수, 라임과 코코넛 밀크 등 태국 음식에서 빠질 수 없는 재료를 이용해 특유의 시큼 달달한 맛의 음식을 선보인다. 셰프의 넉넉한 인심과 태국 현지의 분위기를 느낄 수 있어 더욱 매력적인 이곳에서 파란색 툭툭(Tuk Tuk)과 함께 이국의 정취를 느껴보길 바란다.",bib
208,511955,이치류,바비큐,02-3144-1312,"마포구 잔다리로 3안길 44, Seoul, 04043, 대한민국",37.55061,126.91913,"['에어컨', '카운터 테이블']",₩₩,"‘일류’를 의미하는 일본어 이치류. 국내 최초의 삿포로식 양구이 전문점으로, 1년 미만의 호주산 생 양고기만을 취급하며, 삿포로에서 직접 공수한 칭기즈칸 불판과 인체에 무해한 비장탄을 사용해 고기를 굽는다. 숙련된 직원들이 돌아가면서 빠른 손놀림으로 고기를 직접 구워주기 때문에 양고기에 익숙지 않은 고객도 편안하게 즐길 수 있다. 바 형식의 그릴 테이블은 즐거운 식사 분위기에 한몫하는 이치류 본점만의 개성으로, 양고기를 즐기기에 더없이 훌륭하다.",plate
209,1210638,뉴러우멘관즈,타이완,051-623-0251,"수영구 수영로 388번길 25-4, Busan, 48311, 대한민국",35.14042,129.10832,"['에어컨', '카운터 테이블']",₩,"남천동의 한 골목, 노란 차양 아래에 길게 이어진 줄. 뉴러우멘관즈를 찾는 데는 그리 오랜 시간이 걸리지 않는다. 칼칼한 대만식 '홍샤오 우육면'과 '완탕면', 대만식 비빔면 '량멘', 그리고 완탕면에 곁들임으로 들어가는 만두에 매운 기름 홍유를 얹은 홍유초수와 '마라깐양' 등 메뉴는 단출하지만 그 맛은 깊다. 간장으로 맛을 낸 큼직한 소고기에 청경채와 배추갓 절임을 올리고 라유로 매운 맛을 낸 우육면 한 그릇이면 겨울에도 땀이 난다. 달달한 망고맥주와 함께 먹으면 제격이다.",bib
210,511953,화해당,게장,02-785-4422,"영등포구 국회대로 62길 15, Seoul, 07236, 대한민국",37.52689,126.91706,"['에어컨', '주차장']",₩₩,"한자어로 ‘꽃게집’을 뜻하는 화해당은 태안에서 유명한 간장게장 집의 첫 번째 서울 분점이다. 매년 봄, 통통하게 살이 오른 꽃게를 급랭 시켜 1 년 내내 사용한다. 채소 육수와 양조간장을 혼합하여 만든 이 집만의 특제 간장은 인공 조미를 첨가하지 않은 깊은 맛을 자랑하고, 단맛 나는 게살의 식감 또한 탱탱한 것이 일품이다. 모든 게장은 이틀에 한 번꼴로 태안에서 공급받으며, 탱글탱글한 어리굴젓 역시 태안에서 올라온다. 갓 지어 나오는 솥 밥에 게장을 얹어 향긋한 감태에 싸 먹으면 어느새 밥 한 그릇이 뚝딱 없어진다. ",bib
211,1210634,레썽스,프렌치,010-9585-7050,"수영구 광남로 22번길 17, 3층, Busan, 48307, 대한민국",35.14399,129.11074,"['에어컨', '카운터 테이블']",₩₩,남천역 인근의 한적한 골목에 위치한 프렌치 레스토랑이다. 레썽스의 전지성 셰프는 우리나라의 제철 식재료와 진한 소스를 조합하여 맛과 향의 조화가 뛰어난 프렌치 요리를 선보인다. 아울러 이따금 장아찌나 젓갈 같은 발효 식품을 요리에 더해 포인트를 주기도 하는데 녹진한 프렌치 요리의 풍미 속에서 한국적인 맛을 찾는 재미가 있다. 기본적으로 단품 요리만 제공하지만 늦어도 방문 하루 전에 주문한다면 좀더 다양하게 구성된 코스 요리도 즐길 수 있다.,plate
212,1210651,담미옥,냉면,010-7704-5318,"부산진구 복지로 15, 개금포르투나 상가 103호, Busan, 47328, 대한민국",35.15186,129.02054,['에어컨'],₩,"개금동에 소담히 자리잡은 담미옥. 그 이름처럼 담백한 맛을 추구하는 평양냉면 전문점이다. 소와 돼지, 닭으로만 육수를 내어 잡내가 없고 기름기가 적어 깔끔한 맛을 자랑한다. 자가 제면한 메밀면을 쓰는데 입맛에 따라 100% 순면을 선택할 수도 있다. 좀더 고소한 맛을 느낄 수 있으니 도전해 볼 것. 냉면 외에 곰탕과 어복쟁반 같은 부대 메뉴도 준비되어 있다.",bib
213,1210580,야키토리 온정,야키토리,010-2281-9293,"부산진구 동천로 108번길 9-7, Busan, 47247, 대한민국",35.15866,129.06284,"['에어컨', '카운터 테이블']",₩,부부가 운영하는 작은 야키토리 식당 온정. 서울에서 경험을 쌓고 부산에서 첫 식당을 열었다. 토종닭을 사용하면서도 크기가 적당한 것을 골라 육질이 부드럽다. 벽돌집 아치 안에 자리한 듯한 편안한 분위기와 채도 낮은 조명이 다양하게 준비되어 있는 니혼슈와 위스키의 맛을 한층 배가 시킨다. 야키토리와 함께 한 잔 즐겨 보는 것은 어떨까?,bib
214,1210502,레땅,프렌치,051-807-3636,"부산진구 성지로 22, Busan, 47123, 대한민국",35.17255,129.05523,"['에어컨', '카운터 테이블']",₩₩,연지동의 한 도로변에 홀로 자리를 지키고 있는 프렌치 레스토랑 레땅. 레땅은 정동원 셰프가 혼자서 요리와 서비스를 전담하는 1인 셰프 다이닝이다. 식재료 준비부터 조리와 서비스까지 요리의 전 과정에 셰프의 손길이 닿는다. 레땅은 제철 식재료를 사용하여 계절별로 메뉴에 변화를 줌으로써 계절의 풍미를 셰프의 프렌치 요리에 올곧이 담아 낸다. 기본에 충실하면서도 간결하고 담백한 프렌치 퀴진을 즐길 수 있는 곳이다. 주방을 마주보는 카운터 테이블은 좌석이 넉넉지 않으니 방문하기 전 예약을 권장한다.,plate
215,1208705,모리,일식,051-731-9889,"해운대구 해운대해변로 298번길 24, 팔레드시즈 2층 2-4호, Busan, 48099, 대한민국",35.1602,129.16659,"['에어컨', '주차장', '카운터 테이블']",₩₩₩,"일본에서 수학한 셰프와 그의 일본인 아내가 함께 운영하는 모리. 정갈한 정통 가이세키 요리를 즐길 수 있는 곳으로, 눈과 입이 모두 즐거운 곳이다. 부산의 신선한 해산물과 제철 채소를 이용해 섬세한 요리를 만들어 내는 김완규 셰프는 식재료의 조화와 코스의 리듬감을 잘 조절하는 균형 감각이 탁월하다. 아내의 세심하고 유려한 서비스와 셰프의 정성스런 요리를 맛볼 수 있는 따뜻한 공간에서 정통 일식을 즐겨 보시길 바란다.",1 star
216,1208786,램지,프렌치,010-9406-3135,"수영구 광안해변로 255번길 45, Busan, 48285, 대한민국",35.15704,129.12081,['에어컨'],₩₩₩,"클래식 프렌치 퀴진을 베이스로 삼고 식재료를 활용한 여러 시도를 보여주는 이규진 셰프의 램지. 램지는 최근 다양한 스타일의 레스토랑이 속속 생겨나는 민란동의 다이닝 격전지에서 매력적인 프렌치 요리로 그 존재감을 드러내고 있다. 다양한 풍미를 조합하여 맛의 변주를 이끄는 아뮤즈 부슈부터 안정적 쿠킹 능력이 돋보이는 생선 및 고기 요리까지 프렌치 코스 요리의 요소를 갖추고 있으며, 소스의 맛을 잘 활용한 요리에 중점을 두고 있다. 레스토랑의 아늑한 분위기를 만끽하며 차분한 서비스와 함께 편안하게 식사를 즐겨 보시기 바란다.",plate
217,1208663,야키토리 해공,야키토리,051-758-8333,"수영구 민락본동로 19번길 30-5, Busan, 48290, 대한민국",35.15823,129.12712,"['에어컨', '카운터 테이블']",₩₩,"조용한 주택가 골목 한 켠의 분홍색 건물에 ‘해공'이라고 적힌 작은 간판이 걸려 있다. 토종닭 야키토리를 맛볼 수 있는 곳이다. 2022년 10월, 지금의 자리로 이전 오픈하면서 야키토리를 좀 더 고급스럽게 즐길 수 있도록 변화를 꾀했다. 특히 해공의 특제 부산 곰장어 구이는 입에 꽉 차는 크기와 풍성한 육즙에 바다맛 미네랄리티와 탱탱한 식감을 모두 맛볼 수 있으니 꼭 경험해 볼 것. 세련된 실내 디자인이 돋보이는 조용한 분위기에서 부산의 야키토리를 즐길 수 있는 곳이다.",plate
218,1208776,차애전 할매 칼국수,칼국수,051-751-9639,"연제구 과정로 191번가길 70, Busan, 47558, 대한민국",35.18716,129.10249,[],₩,"차애전 할매 칼국수는 1982년 개업 이후 변함없는 꾸준함을 무기로 오랜 시간 지역민들에게 소박하고 따뜻한 칼국수를 제공해왔다. 어디서든 쉽게 접할 수 있는 칼국수이지만 이곳의 칼국수는 소박함에서 나오는 옛스러운 스타일이 눈에 띈다. 걸쭉한 국물과는 달리 마일드하고 라이트한 맛, 김치 대신 나오는 독특하고 매콤한 맛의 김치양파 다대기 등 이곳만의 특징적 요소들이 있다. 처음에는 다대기를 풀지 말고 슴슴한 국물과 면을 즐긴 다음 국물에 다대기를 풀어 먹으면 얼큰함이 잔잔하게 올라온다. 이 밖에도 할매칼국수와 비빔칼국수, 여름에만 판매하는 맷돌콩칼국수 등 칼국수의 여러 변형된 메뉴를 즐길 수 있다. 칼국수 양을 고를 수 있어 식사량에 따라 합리적으로 선택도 가능하다.",plate
219,1208716,굿모닝홍콩,중식,010-6444-3724,"부산진구 서전로 47번길 19, Busan, 47247, 대한민국",35.15875,129.06444,['에어컨'],₩,"홍콩 음식이 그립다면, 홍콩의 바이브를 느껴 보고 싶다면 차찬텡 컨셉의 이곳을 주목하자. 그저 홍콩이 좋아 오픈했다는 오너는 정통 홍콩식보다는 한국인의 입맛에 맞게 약간 변형시킨 음식을 제공한다. 그럼에도 그 맛이나 비주얼만큼은 현지 음식에 뒤지지 않는다. 토마토와 햄이 듬뿍 들어간 칼칼한 토마토 국수를 비롯해 연유와 시럽을 아낌 없이 넣은 빵, 달달한 밀크티인 나이차나 레몬 홍차인 똥랭차 등을 맛볼 수 있다. 홍콩스러운 비주얼은 덤이다.",plate
220,1200922,레스토랑 알렌,"컨템퍼러리, 계절 요리",02-6985-7214,"강남구 테헤란로 231, 센터필드 East 2층 E205호, Seoul, 06142, 대한민국",37.5036,127.0418,"['아주 좋은 와인 리스트', '에어컨', '주차장', '휠체어 가능']",₩₩₩₩,레스토랑 알렌은 서현민 셰프의 정교함과 정성이 빚어낸 현대적 퀴진의 세련미를 두루 경험할 수 있는 곳이다. 한국의 제철 식재료를 연구하고 활용하며 얻은 셰프의 노하우가 요리에 고스란히 담겨 있어 무척 매력적인 맛을 선사한다. 복잡한 맛을 표현하기보다 식재료의 특성을 쉽고 정확하게 전달하는 셰프의 감각과 스킬은 알렌만의 강점이자 흥미로운 다이닝 포인트이다. 아울러 일사분란한 키친 팀과 서비스 팀이 만들어내는 팀워크 덕분에 고객들은 편안한 분위기에서 다이닝을 즐길 수 있다. 요리에 계절을 담아내는 알렌만의 스타일에서 남다른 즐거움을 경험하게 될 것이다.,2 star
221,1209157,피오또,이탤리언,,"해운대구 좌동순환로 432, 4층, Busan, 대한민국",35.16177,129.17362,['카운터 테이블'],₩₩,"달맞이 고개에서 부부가 운영하는 아담한 공간 피오또. 파스타 코스를 제공하는 곳인데 코스가 파스타로만 구성되어 있다고 고개를 갸웃할 수도 있다. 하지만 직접 경험해 보면 다양한 파스타의 다채로운 맛을 즐기는 일이 무척 즐겁다는 것을 알게 될 것이다. 여러 종류의 생면부터 생햄, 부모님과 함께 운영하는 농장의 채소로 준비하는 재료와 콤부차로 만든 식초, 시럽 등 거의 모든 식재료를 직접 만들어 준비하고 피오또만의 자연적인 맛과 색을 입혀 낸다. 그렇기에 파스타로만 짜여진 코스임에도 속이 부담스럽지 않다. 원활한 코스 진행을 위해 한 시간에 한 팀만 예약이 가능하므로 예약은 필수다.",1 star
222,1208640,호라파,타이,02-730-0215,"종로구 자하문로 37-1, 2층, Seoul, 03040, 대한민국",37.57938,126.9711,"['에어컨', '카운터 테이블']",₩,"태국으로 떠난 짧은 여행. 그곳에서 만난 요리책 한 권은 손승희 셰프의 삶을 크게 바꾸어 놓았고 태국 음식의 매력에 빠져들게 만들었다. 그때부터 손 셰프는 태국 요리에 매진했고 그렇게 쌓은 경험을 레스토랑 호라파에 고스란히 담았다. 숯향과 향신료, 허브의 풍미로 가득한 태국의 거리와 그곳에서 만난 길거리 요리는 셰프에게 큰 영감을 주었고 그의 손을 거쳐 이국적이고 개성 넘치는 호라파만의 요리로 재탄생했다. 손 셰프는 태국 요리의 본질을 지키되 한국에서 나는 양질의 제철 식재료를 사용해 요리에 뚜렷한 개성을 담고자 한다. 그의 이런 철학이 한국에서 재해석된 태국 요리의 새로운 모습을 기대하게 만든다.",bib
223,512014,삼원가든,바비큐,02-548-3030,"강남구 언주로 835, Seoul, 06023, 대한민국",37.52499,127.03297,"['발렛파킹', '에어컨', '주차장', '휠체어 가능']",₩₩,"한국식 바비큐 문화의 대중성과 고급성의 접합점을 절묘하게 찾아낸 전통있는 레스토랑이다. 새롭게 정비된 삼원가든은 최상급 한우의 부위별 식재료와 서비스 팀의 숙련된 그릴 스킬이 만나 안정된 접객 서비스를 제공한다. 여기에다 정성껏 조성한 아름다운 야외 가든, 한국적인 여백의 미가 깃든 높은 층고와 통유리로 디자인된 개방감 있는 다이닝 공간 등 무엇하나 부족함 없는 근사한 식사 환경을 선사한다. 다양한 규모의 프라이빗 룸을 갖추고 있어 고객의 필요에 맞게 다양한 식사 모임이 가능하다. 지나온 시간 만큼 한국 전통의 맛과 고유의 바비큐 문화를 계승해 발전시키고 있는 삼원가든에서 즐거운 식사를 경험해 보자.",plate
224,1195231,디 템포레,프렌치,070-4848-6359,"용산구 한남대로 37, Seoul, 04410, 대한민국",37.532213,127.0081086,"['에어컨', '주차장']",₩₩,‘디템포레’는 그 이름처럼 철마다 달라지는 제철 식재료 요리를 지향하는 모던 프렌치 레스토랑이다. 프렌치 퀴진의 큰 틀 안에서 요리에 계절감과 균형감을 담아내려는 셰프의 감각이 세련되게 반영되었다. 아귀 구이에 곁들여지는 뱅존 소스처럼 프렌치 퀴진에 기반한 여러 특색 있는 소스는 이곳의 요리를 즐기는 또 하나의 재미 요소이다.,plate
225,511965,정식당,컨템퍼러리,02-517-4654,"강남구 선릉로 158길 11, Seoul, 06014, 대한민국",37.525584,127.041069,"['발렛파킹', '아주 좋은 와인 리스트', '에어컨', '휠체어 가능']",₩₩₩₩,"모던 한식 파인 다이닝을 개척한 장본인이라 평가받는 임정식 셰프는 자신의 이름을 내건 정식당 서울과 정식당 뉴욕을 통해 새롭고 창의적인 한식을 세계에 알리고 있다. 김밥, 비빔밥, 구절판, 보쌈 등 대중들이 친근하게 여기는 다양한 한식 요리에서 영감을 얻어 재해석한 독창적인 메뉴는 한국인에게 익숙한 맛을 기발하게 풀어내는 방식으로  한식의 맛과 멋을 동시에 만족시킨다. 독특한 디저트와 훌륭한 구성의 와인 리스트, 그리고 배려심 깊은 서비스 등 즐거운 식사를 위한 요소들이 두루 갖춰진 곳이다.",2 star
